YEARMONTH,EPISODE_ID,EVENT_ID,LOCATION_INDEX,RANGE,AZIMUTH,LOCATION,LATITUDE,LONGITUDE,LAT2,LON2
201503,1417659,554534,1,0,"N","FRIENDLY",39.52,-81.07,3931200,814200
201503,1417659,554534,2,0,"N","FALLS MILLS",39.45,-81,3927000,8100
201503,1417659,554534,3,0,"N","MC KIM",39.38,-80.97,3922800,8058200
201503,1417659,554534,4,0,"N","ALVY",39.47,-80.68,3928200,8040800
201503,1417659,554534,5,0,"N","KIDWELL",39.53,-80.88,3931800,8052800
201503,1417659,554534,6,.78,"E","SISTERSVILLE",39.5702,-80.9853,3934212,8059118
201503,1417659,554535,1,2.39,"E","POINT LOOKOUT SCHOOL",39.4551,-81.0356,3927306,812136
201503,1417659,554535,2,0,"E","HEBRON",39.37,-81.02,3922200,811200
201503,1417659,554535,3,0,"E","SCHULTZ",39.32,-81.25,3919200,8115000
201503,1417659,554535,4,0,"E","CLUSTER",39.33,-81.33,3919800,8119800
201503,1417659,554535,5,2.24,"WSW","RAVEN ROCK",39.4136,-81.1861,3924816,8111166
201503,1417659,554536,1,0,"N","ASHLEY",39.4,-80.67,3924000,8040200
201503,1417659,554536,2,0,"N","SEDALIA",39.37,-80.58,3922200,8034800
201503,1417659,554536,3,0,"N","AVON",39.2,-80.65,3912000,8039000
201503,1417659,554536,4,0,"N","LEOPOLD",39.12,-80.75,397200,8045000
201503,1417659,554536,5,0,"N","OXFORD",39.2,-80.87,3912000,8052200
201503,1417659,554536,6,0,"N","GREENWOOD",39.27,-80.9,3916200,8054000
201503,1417659,554537,1,2.56,"NE","RINEHART",39.4482,-80.4891,3926892,8029346
201503,1417659,554537,2,0,"NE","WYATT",39.43,-80.35,3925800,8021000
201503,1417659,554537,3,0,"NE","LOST CREEK",39.17,-80.35,3910200,8021000
201503,1417659,554537,4,0,"NE","KINCHELOE",39.15,-80.5,399000,8030000
201503,1417659,554537,5,1,"W","JARVISVILLE",39.23,-80.4987,3913800,8029922
201503,1417659,554537,6,0,"W","SALEM",39.28,-80.57,3916800,8034200
201503,1417659,554538,1,0,"N","BOAZ",39.37,-81.48,3922200,8128800
201503,1417659,554538,2,0,"N","WAVERLY",39.33,-81.37,3919800,8122200
201503,1417659,554538,3,1,"NE","DEERWALK",39.2602,-81.3168,3915612,8119008
201503,1417659,554538,4,1,"NE","WALKER",39.1902,-81.3668,3911412,8122008
201503,1417659,554538,5,0,"NE","ROCKPORT",39.07,-81.57,394200,8134200
201503,1417659,554538,6,0,"NE","BELLEVILLE",39.12,-81.73,397200,8143800
201503,1417659,554538,7,0,"NE","PARKERSBURG",39.27,-81.55,3916200,8133000
201503,1417659,554540,1,0,"N","FINCH",39.32,-81.08,3919200,814800
201503,1417659,554540,2,0,"N","TOLL GATE",39.27,-80.92,3916200,8055200
201503,1417659,554540,3,0,"N","AUBURN",39.1,-80.85,396000,8051000
201503,1417659,554540,4,0,"N","BURNT HOUSE",39.05,-80.98,393000,8058800
201503,1417659,554540,5,0,"N","SMITHVILLE",39.1,-81.1,396000,816000
201503,1417659,554540,6,1,"SSW","PETROLEUM",39.1666,-81.2771,399996,8116626
201503,1417659,554541,1,0,"N","MORRISTOWN",39.05,-81.48,393000,8128800
201503,1417659,554541,2,0,"N","FREEPORT",39.13,-81.33,397800,8119800
201503,1417659,554541,3,0,"N","MUNDAY",39,-81.2,3900,8112000
201503,1417659,554541,4,0,"N","CRESTON",38.95,-81.27,3857000,8116200
201503,1417659,554541,5,.5,"S","PEE WEE",38.9428,-81.48,3856568,8128800
201503,1417659,554543,1,0,"N","COLEBANK",39.23,-79.85,3913800,7951000
201503,1417659,554543,2,1,"E","KIRT",39.12,-79.8613,397200,7951678
201503,1417659,554543,3,1,"E","STRINGTOWN",39.03,-79.8814,391800,7952884
201503,1417659,554543,4,0,"E","JUNIOR",38.97,-79.95,3858200,7957000
201503,1417659,554543,5,1,"N","AUDRA",39.0645,-80.07,393870,804200
201503,1417659,554543,6,0,"N","PEELTREE",39.13,-80.22,397800,8013200
201503,1417659,554543,7,0,"N","BROWNTON",39.22,-80.15,3913200,809000
201503,1417659,554548,1,0,"N","PICKLE STREET",39.02,-80.68,391200,8040800
201503,1417659,554548,2,2,"NW","CHURCHVILLE",39.1205,-80.6064,397230,8036384
201503,1417659,554548,3,0,"NW","JANE LEW",39.12,-80.4,397200,8024000
201503,1417659,554548,4,0,"NW","ABERDEEN",39.07,-80.32,394200,8019200
201503,1417659,554548,5,0,"NW","IRELAND",38.82,-80.47,3849200,8028200
201503,1417659,554548,6,0,"NW","WALKERSVILLE",38.87,-80.45,3852200,8027000
201503,1417659,554548,7,0,"NW","COPLEY",38.97,-80.63,3858200,8037800
201503,1417659,554553,1,0,"N","HEMLOCK",38.78,-80.15,3846800,809000
201503,1417659,554553,2,0,"N","ELLAMORE",38.93,-80.1,3855800,806000
201503,1417659,554553,3,0,"N","YOKUM",38.97,-80.07,3858200,804200
201503,1417659,554553,4,2,"NE","FIVE FORKS",39.0205,-80.0737,391230,804422
201503,1417659,554553,5,0,"NE","HODGESVILLE",39.07,-80.2,394200,8012000
201503,1417659,554553,6,0,"NE","LORENTZ",39.02,-80.3,391200,8018000
201503,1417659,554553,7,0,"NE","ROCK CAVE",38.83,-80.33,3849800,8019800
201503,1417659,554553,8,0,"NE","SELBYVILLE",38.75,-80.23,3845000,8013800
201503,1417659,554617,1,0,"N","MONTROSE",39.07,-79.82,394200,7949200
201503,1417659,554617,2,0,"N","AGGREGATES",38.93,-79.92,3855800,7955200
201503,1417659,554617,3,0,"N","PUMPKINTOWN",38.9,-80.02,3854000,801200
201503,1417659,554617,4,0,"N","CASSITY",38.83,-80.03,3849800,801800
201503,1417659,554617,5,0,"N","PICKENS",38.65,-80.22,3839000,8013200
201503,1417659,554617,6,0,"N","VALLEY HEAD",38.55,-80.03,3833000,801800
201503,1417659,554617,7,0,"N","GLADY",38.8,-79.72,3848000,7943200
201503,1417659,554617,8,0,"N","HARMAN",38.92,-79.53,3855200,7931800
201503,1417659,554622,1,0,"N","WEBSTER SPGS",38.48,-80.42,3828800,8025200
201503,1417659,554622,2,1,"W","COWEN",38.42,-80.5685,3825200,8034110
201503,1417659,554622,3,0,"W","DYER",38.38,-80.47,3822800,8028200
201503,1417659,554622,4,1,"E","JERRYVILLE",38.42,-80.2815,3825200,8016890
201503,1417659,554624,1,0,"N","RICHWOOD",38.23,-80.53,3813800,8031800
201503,1417659,554624,2,0,"N","CRAIGSVILLE",38.33,-80.65,3819800,8039000
201503,1417659,554624,3,0,"N","CALVIN",38.33,-80.72,3819800,8043200
201503,1417659,554624,4,1.17,"E","VAUGHAN",38.2806,-81.1084,3816836,816504
201503,1417659,554624,5,0,"E","LEIVASY",38.15,-80.68,389000,8040800
201503,1417659,554629,1,0,"N","COXS MILLS",39.05,-80.83,393000,8049800
201503,1417659,554629,2,0,"N","TROY",39.02,-80.77,391200,8046200
201503,1417659,554629,3,0,"N","GILMER",38.87,-80.72,3852200,8043200
201503,1417659,554629,4,0,"N","CEDARVILLE",38.83,-80.82,3849800,8049200
201503,1417659,554629,5,0,"N","SHOCK",38.77,-80.97,3846200,8058200
201503,1417659,554629,6,0,"N","TANNER",38.98,-80.95,3858800,8057000
201503,1417659,554633,1,1,"NW","MEDINA",39.0102,-81.6332,39612,8137992
201503,1417659,554633,2,2,"NE","LOCKHART",38.9905,-81.5937,3859430,8135622
201503,1417682,554812,3,0,"SW","MARTHA",38,-82.92,3800,8255200
201503,1417682,554812,4,0,"SW","WEBBVILLE",38.18,-82.87,3810800,8252200
201503,1417682,554812,5,2,"N","FALLSBURG",38.199,-82.67,3811940,8240200
201503,1417682,554812,6,1.1,"E","WALBRIDGE",38.0712,-82.5799,384272,8234794
201503,1417682,554812,7,0,"E","CLIFFORD",38,-82.52,3800,8231200
201503,1417682,554813,1,0,"N","RUSH",38.33,-82.78,3819800,8246800
201503,1417682,554813,2,1.13,"W","BAILEY",38.3681,-82.7708,3822086,8246248
201503,1417682,554813,3,.7,"ENE","ROCKDALE",38.4233,-82.6678,3825398,8240068
201503,1417682,554813,4,2.87,"N","SAVAGE BRANCH",38.3715,-82.6017,3822290,8236102
201503,1417682,554813,5,0,"N","BURNAUGH",38.27,-82.58,3816200,8234800
201503,1417682,554814,1,0,"N","WILLARD",38.22,-82.9,3813200,8254000
201503,1417682,554814,2,0,"N","OLIVE HILL",38.3,-83.17,3818000,8310200
201503,1417682,554814,3,0,"N","CARTER",38.43,-83.12,3825800,837200
201503,1417682,554814,4,3.55,"NNW","NORTON BRANCH",38.3749,-82.8319,3822494,8249914
201503,1417683,554815,1,0,"N","PEDRO",38.63,-82.67,3837800,8240200
201503,1417683,554815,2,0,"N","BUCKHORN",38.77,-82.63,3846200,8237800
201503,1417683,554815,3,0,"N","WATERLOO",38.7,-82.47,3842000,8228200
201503,1417683,554815,4,0,"N","ARABIA",38.67,-82.47,3840200,8228200
201503,1417683,554815,5,.69,"WSW","MILLER",38.5255,-82.3114,3831530,8218684
201503,1417683,554815,6,.84,"WNW","BRADRICK",38.4361,-82.4135,3826166,8224810
201503,1417683,554815,7,.73,"S","SHERIDAN",38.4594,-82.5999,3827564,8235994
201503,1417683,554816,1,0,"N","MERCERVILLE",38.67,-82.27,3840200,8216200
201503,1417683,554816,2,4.13,"S","MC DANIEL XROADS",38.7106,-82.4612,3842636,8227672
201503,1417683,554816,3,5.2,"WNW","ALICE",39.0457,-82.4611,392742,8227666
201503,1417683,554816,4,2.63,"NE","BULAVILLE",38.9292,-82.1485,3855752,828910
201503,1417683,554817,1,0,"N","MARIETTA",39.42,-81.45,3925200,8127000
201503,1417683,554817,2,3,"NW","LOWER SALEM",39.6007,-81.4398,3936042,8126388
201503,1417683,554817,3,2,"NE","HOHMAN",39.5505,-81.1535,3933030,819210
201503,1417683,554817,4,1.13,"NW","BEAVERTOWN",39.4815,-81.135,3928890,818100
201503,1417683,554817,5,1.33,"W","LOWER NEWPORT",39.3485,-81.3749,3920910,8122494
201503,1417684,554819,1,0,"N","MONTERVILLE",38.57,-80.12,3834200,807200
201503,1417684,554819,2,0,"N","HELVETIA",38.7,-80.2,3842000,8012000
201503,1417684,554819,3,0,"N","ADOLPH",38.73,-80.05,3843800,803000
201503,1417684,554819,4,2,"W","COALTON",38.9,-80.0072,3854000,80432
201503,1417684,554819,5,0,"W","MONTROSE",39.07,-79.82,394200,7949200
201503,1417684,554819,6,0,"W","WYMER",38.88,-79.62,3852800,7937200
201503,1417684,554819,7,0,"W","VALLEY HEAD",38.55,-80.03,3833000,801800
201503,1417684,554821,1,0,"N","JUNIOR",38.97,-79.95,3858200,7957000
201503,1417684,554821,2,0,"N","KASSON",39.22,-79.88,3913200,7952800
201503,1417684,554821,3,0,"N","BROWNTON",39.22,-80.15,3913200,809000
201503,1417684,554821,4,0,"N","CENTURY",39.1,-80.18,396000,8010800
201503,1417684,554821,5,0,"N","VOLGA",39.08,-80.13,394800,807800
201503,1417684,554821,6,0,"N","AUDRA",39.05,-80.07,393000,804200
201503,1417684,554823,1,0,"N","MARGRET",39.47,-80.45,3928200,8027000
201503,1417684,554823,2,0,"N","WYATT",39.43,-80.35,3925800,8021000
201503,1417684,554823,3,0,"N","ADAMSVILLE",39.4,-80.25,3924000,8015000
201503,1417684,554823,4,0,"N","LOST CREEK",39.17,-80.35,3910200,8021000
201503,1417684,554823,5,0,"N","TICHENAL",39.18,-80.48,3910800,8028800
201503,1417680,554524,3,1,"NE","WESTWOOD",38.4902,-82.6569,3829412,8239414
201503,1417680,554524,4,1.09,"ESE","ASHLAND",38.4613,-82.6132,3827678,8236792
201503,1417680,554524,5,.28,"SSE","CATLETTSBURG",38.4164,-82.5975,3824984,8235850
201503,1417680,554524,6,2.62,"N","SAVAGE BRANCH",38.368,-82.6013,3822080,8236078
201503,1417680,554524,7,1.14,"N","SAVAGE BRANCH",38.3464,-82.6013,3820784,8236078
201503,1417680,554524,8,0,"N","RUSH",38.33,-82.78,3819800,8246800
201503,1417680,554525,1,0,"N","BLAINE",38.03,-82.83,381800,8249800
201503,1417680,554525,2,0,"N","WEBBVILLE",38.18,-82.87,3810800,8252200
201503,1417680,554525,3,0,"N","BUCHANAN",38.25,-82.6,3815000,8236000
201503,1417680,554525,4,.37,"ESE","FULLERS",38.1671,-82.6442,3810026,8238652
201503,1417680,554525,5,0,"ESE","CLIFFORD",38,-82.52,3800,8231200
201503,1417680,554525,6,0,"ESE","ULYSSES",37.95,-82.68,3757000,8240800
201503,1417681,554526,1,1,"S","DAVENPORT",37.0855,-82.13,375130,827800
201503,1417681,554526,2,.07,"SW","CONAWAY",37.1192,-82.1809,377152,8210854
201503,1417681,554526,3,0,"SW","BIG ROCK",37.35,-82.2,3721000,8212000
201503,1417681,554526,4,7.79,"NE","KELSA",37.5303,-81.9703,3731818,8158218
201503,1417681,554526,5,7.31,"NE","HURLEY",37.505,-81.9507,3730300,8157042
201503,1417681,554526,6,1,"NW","HURLEY",37.4302,-82.0429,3725812,822574
201503,1417681,554526,7,2.32,"WNW","PAYNESVILLE",37.3442,-81.9384,3720652,8156304
201503,1417681,554527,1,.43,"NNE","GEORGES FORK",37.1556,-82.4967,379336,8229802
201503,1417681,554527,2,1.38,"ENE","OSBORNS GAP",37.2087,-82.5275,3712522,8231650
201503,1417681,554527,3,0,"ENE","BARTLICK",37.25,-82.33,3715000,8219800
201503,1417681,554527,4,0,"ENE","DUTY",37.08,-82.15,374800,829000
201503,1417681,554527,5,1.43,"S","OPEN FORK",37.0296,-82.3655,371776,8221930
201503,1417682,554812,1,2.46,"S","PATRICK",37.8948,-82.6425,3753688,8238550
201503,1417682,554812,2,2.1,"SW","ULYSSES",37.9276,-82.706,3755656,8242360
201502,1416925,551749,1,2.59,"ESE","BUCKINGHAM",26.6505,-81.6942,2639030,8141652
201502,1416927,551830,1,1,"SE","COPELAND",48.8898,-116.3644,4853388,11621864
201502,1416927,551830,2,1.55,"ESE","COPELAND",48.894,-116.3471,4853640,11620826
201502,1416927,551830,3,1.77,"ESE","COPELAND",48.89,-116.3442,4853400,11620652
201502,1416927,551830,4,1.34,"SE","COPELAND",48.8868,-116.3583,4853208,11621498
201502,1416927,551831,2,1.18,"ESE","BONNERS FERRY",48.6955,-116.2951,4841730,11617706
201502,1416927,551831,3,.99,"SSE","BONNERS FERRY",48.6873,-116.3097,4841238,11618582
201502,1416927,551831,4,.74,"SSW","BONNERS FERRY",48.6901,-116.3262,4841406,11619572
201502,1416927,551832,1,.42,"W","KINGSTON",47.5499,-116.279,4732994,11616740
201502,1416927,551832,2,.19,"SSE","KINGSTON",47.5476,-116.2678,4732856,11616068
201502,1416927,551832,3,.2,"E","KINGSTON",47.55,-116.2657,4733000,11615942
201502,1416927,551832,4,.27,"WNW","KINGSTON",47.5521,-116.275,4733126,11616500
201502,1416928,551809,1,2.22,"SSE","REPUBLIC",48.6204,-118.7311,4837224,11843866
201502,1416928,551809,2,2.27,"SSE","REPUBLIC",48.6199,-118.7301,4837194,11843806
201502,1416928,551809,3,2.29,"SSE","REPUBLIC",48.6195,-118.7306,4837170,11843836
201502,1416928,551809,4,2.24,"SSE","REPUBLIC",48.6199,-118.7315,4837194,11843890
201502,1416928,551810,1,.63,"NW","METALINE",48.8575,-117.388,4851450,11723280
201502,1416928,551810,2,.64,"NNW","METALINE",48.8579,-117.3875,4851474,11723250
201502,1416928,551810,3,.61,"NNW","METALINE",48.8576,-117.3868,4851456,11723208
201502,1416928,551810,4,.6,"NW","METALINE",48.8573,-117.3874,4851438,11723244
201502,1416928,551811,1,6.1,"WNW","DIAMOND LAKE",48.1567,-117.3062,489402,11718372
201502,1416928,551811,2,5.91,"WNW","DIAMOND LAKE",48.1571,-117.3015,489426,11718090
201502,1416928,551811,3,5.87,"WNW","DIAMOND LAKE",48.1549,-117.3017,489294,11718102
201502,1416928,551811,4,6.02,"WNW","DIAMOND LAKE",48.1548,-117.3052,489288,11718312
201502,1416928,551812,1,1.86,"WSW","MATNEYS SPUR",48.6427,-118.1693,4838562,11810158
201502,1416928,551812,2,1.79,"WSW","MATNEYS SPUR",48.6425,-118.1676,4838550,11810056
201502,1416928,551812,3,1.77,"WSW","MATNEYS SPUR",48.6429,-118.1672,4838574,11810032
201502,1416928,551812,4,1.84,"WSW","MATNEYS SPUR",48.6431,-118.1689,4838586,11810134
201502,1416928,551813,1,5,"NW","OROVILLE",48.9812,-119.5079,4858872,11930474
201502,1416928,551813,2,4.79,"W","OROVILLE SCOTT ARPT",48.9806,-119.5045,4858836,11930270
201502,1416928,551813,3,4.84,"NW","OROVILLE",48.9784,-119.5072,4858704,11930432
201502,1416928,551813,4,4.95,"NW","OROVILLE",48.9792,-119.5093,4858752,11930558
201502,1416928,551815,1,2.61,"SSW","METALINE",48.8182,-117.4109,4849092,11724654
201502,1416928,551815,2,2.55,"SSW","METALINE",48.8141,-117.3927,4848846,11723562
201502,1416928,551815,3,.82,"SE","METALINE FALLS",48.8623,-117.3563,4851738,11721378
201502,1416928,551815,4,.52,"W","METALINE FALLS",48.8693,-117.3814,4852158,11722884
201502,1416928,551829,1,6,"ESE","ROCK IS",47.3368,-120.0116,4720208,120696
201502,1416928,551829,2,2.01,"SW","APPLEDALE",47.3313,-120.003,4719878,120180
201502,1416928,551829,3,1.54,"SW","APPLEDALE",47.3358,-119.9953,4720148,11959718
201502,1416928,551829,4,1.66,"WSW","APPLEDALE",47.3399,-120.0022,4720394,120132
201502,1417011,552838,1,2.94,"NW","ISOM",37.9789,-81.9095,3758734,8154570
201502,1417011,552838,2,1.08,"NNE","BANCO",38.0146,-82.0131,38876,82786
201502,1417011,552838,3,3.28,"NNW","WHIRLWIND",37.9748,-82.1497,3758488,828982
201502,1417011,552838,4,.77,"WNW","THREE FORKS ARPT",37.9061,-82.0619,3754366,823714
201502,1417052,553652,1,5.26,"NNE","CLEARWATER BEACH",28.0514,-82.7999,283084,8247994
201502,1417052,553653,1,.05,"NE","CLEARWATER BEACH",27.9805,-82.8294,2758830,8249764
201502,1417052,553654,1,.69,"N","CEDAR KEY",29.14,-83.03,298400,831800
201502,1417054,553874,1,10.44,"N","BASINGER",27.53,-81.01,2731800,81600
201502,1417054,553875,1,18.54,"NNW","BASINGER",27.63,-81.14,2737800,818400
201502,1417054,553875,2,8.23,"WNW","FT DRUM",27.55,-80.95,2733000,8057000
201502,1417054,553875,3,7.86,"ENE","BASINGER",27.42,-80.91,2725200,8054600
201502,1417054,553875,4,3.02,"NNW","BASINGER",27.42,-81.05,2725200,813000
201502,1417054,553875,5,14.68,"NW","BASINGER",27.52,-81.21,2731200,8112600
201502,1417054,553911,1,1.97,"ENE","JENSEN BEACH",27.26,-80.2,2715600,8012000
201502,1417054,553911,2,3.51,"N","GOMEZ",27.13,-80.14,277800,808400
201502,1417054,553911,3,1.51,"SSW","HOBE SOUND",27.05,-80.14,273000,808400
201502,1417054,553911,4,8,"E","INDIANTOWN CRL T ARP",27.03,-80.3,271800,8018000
201502,1417054,553911,5,8.12,"E","INDIANTOWN CRL T ARP",27.05,-80.3,273000,8018000
201502,1417054,553911,6,2.77,"NW","LIGHTHOUSE PT",27.21,-80.3,2712600,8018000
201502,1417054,553913,1,.69,"N","ELDRED",27.39,-80.3,2723400,8018000
201502,1417054,553913,2,1.51,"SSE","EDEN",27.26,-80.24,2715600,8014400
201502,1417054,553913,3,5.42,"SSW","PORT ST LUCIE",27.2,-80.36,2712000,8021600
201502,1417054,553913,4,5.52,"W","WHITE CITY",27.37,-80.42,2722200,8025200
201502,1417059,559608,1,3.77,"E","KYBURZ",38.78,-120.23,3846800,12013800
201502,1417059,559609,1,3.77,"E","KYBURZ",38.78,-120.23,3846800,12013800
201502,1417059,559610,1,.69,"S","PACIFIC",38.76,-120.5,3845600,12030000
201502,1417059,559611,1,1.48,"NNE","WILLOWS",39.54,-122.19,3932400,12211400
201502,1417059,559611,2,1.49,"N","WILLOWS",39.5415,-122.2006,3932490,12212036
201502,1417059,559611,3,.88,"N","WILLOWS",39.5327,-122.1991,3931962,12211946
201502,1417059,559611,4,1.24,"NE","WILLOWS",39.533,-122.1839,3931980,12211034
201502,1417059,559612,1,3.74,"W","SODA SPGS",39.32,-120.45,3919200,12027000
201502,1417059,559613,1,.88,"SE","LOOMIS",38.81,-121.19,3848600,12111400
201502,1417059,559614,1,3.33,"NW","SIMS",41.08,-122.38,414800,12222800
201502,1417080,554201,1,0,"N","C TOWER",29.4,-84.86,2924000,8451600
201502,1417080,554202,1,0,"N","C TOWER",29.4,-84.86,2924000,8451600
201502,1417085,554204,1,1.7,"N","SOUTHWOOD",30.4146,-84.2098,3024876,8412588
201502,1417085,554205,1,0,"N","CRAWFORDVILLE",30.17,-84.37,3010200,8422200
201502,1417085,554206,1,0,"N","WAUKEENAH",30.41,-83.95,3024600,8357000
201502,1417085,554207,1,0,"N","MONTICELLO",30.54,-83.87,3032400,8352200
201502,1417085,554208,1,0,"N","LAMONT",30.37,-83.81,3022200,8348600
201502,1417085,554209,1,3,"E","GREENVILLE",30.4691,-83.5796,3028146,8334776
201502,1417085,554210,1,7.27,"WSW","SIRMANS",30.3221,-83.7775,3019326,8346650
201502,1417085,554211,1,3.59,"E","LEE",30.4051,-83.24,3024306,8314400
201502,1417085,554212,1,0,"N","PERRY",30.11,-83.58,306600,8334800
201502,1417085,554213,1,0,"N","BOYD",30.18,-83.6,3010800,8336000
201502,1417085,554214,1,.66,"N","HAMPTON SPRINGS",30.0894,-83.6482,305364,8338892
201502,1417085,554215,1,0,"N","COOKS HAMMOCK",29.92,-83.27,2955200,8316200
201502,1417085,554215,2,0,"N","MAYO",30.05,-83.17,303000,8310200
201502,1417085,554216,1,0,"N","JENA",29.66,-83.37,2939600,8322200
201502,1417085,554218,1,0,"N","CROSS CITY",29.63,-83.12,2937800,837200
201502,1417085,554219,1,0,"N","OLD TOWN",29.6,-82.98,2936000,8258800
201502,1417098,554445,1,1.28,"E","WEST GLACIER",48.5,-113.942,4830000,11356520
201502,1417098,554456,1,8.58,"ENE","LOLO HOT SPGS",46.773,-114.36,4646380,11421600
201502,1417098,554468,1,2.69,"NW","HENDERSON",47.348,-115.29,4720880,11517400
201502,1417101,554479,1,.25,"NW","SALMON",45.1726,-113.9036,4510356,11354216
201502,1417101,554479,2,.5,"N","SALMON",45.1772,-113.9,4510632,11354000
201502,1417101,554479,3,.4,"NE","SALMON",45.1741,-113.8942,4510446,11353652
201502,1417101,554479,4,.1,"N","SALMON",45.1715,-113.9,4510290,11354000
201502,1417121,554900,1,.8,"W","ALVATON",36.87,-86.3645,3652200,8621870
201502,1417121,554900,2,.84,"S","MASSEYS MILL",36.8678,-86.3814,3652068,8622884
201502,1417121,554900,3,.13,"SSW","MASSEYS MILL",36.8784,-86.3812,3652704,8622872
201502,1417121,554900,4,.72,"ESE","MASSEYS MILL",36.8765,-86.3678,3652590,8622068
201502,1417121,554901,1,0,"N","ROCHESTER",37.22,-86.9,3713200,8654000
201502,1417121,554901,2,.77,"SE","ROCHESTER",37.2127,-86.8895,3712762,8653370
201502,1417121,554901,3,.74,"S","ROCHESTER",37.2094,-86.9016,3712564,8654096
201502,1417121,554901,4,.46,"SW","ROCHESTER",37.2154,-86.9059,3712924,8654354
201502,1417122,554904,1,2.13,"NW","LARKFIELD",38.57,-122.76,3834200,12245600
201502,1417122,554904,2,2.29,"NW","LARKFIELD",38.5733,-122.7603,3834398,12245618
201502,1417122,554904,3,2.25,"NW","LARKFIELD",38.5735,-122.7587,3834410,12245522
201502,1417122,554904,4,2.11,"NW","LARKFIELD",38.5707,-122.7587,3834242,12245522
201502,1417122,554905,1,1.75,"N","ATHERTON",37.4953,-122.2317,3729718,12213902
201502,1417122,554905,2,1.88,"SE","(SQL)SAN CARLOS ARPT",37.4976,-122.2306,3729856,12213836
201502,1417122,554905,3,1.77,"SSE","(SQL)SAN CARLOS ARPT",37.4979,-122.2338,3729874,12214028
201502,1417122,554905,4,1.83,"N","ATHERTON",37.4962,-122.2344,3729772,12214064
201502,1417122,554906,1,2.78,"WSW","GEYSERVILLE",38.69,-122.95,3841400,12257000
201502,1417122,554906,2,2.76,"WSW","GEYSERVILLE",38.6876,-122.9487,3841256,12256922
201502,1417122,554906,3,2.61,"WSW","GEYSERVILLE",38.6881,-122.9459,3841286,12256754
201502,1417122,554906,4,2.57,"WSW","GEYSERVILLE",38.6907,-122.9462,3841442,12256772
201502,1417122,554907,1,2.37,"NNW","ALAMEDA",37.8032,-122.281,3748192,12216860
201502,1417122,554907,2,2.15,"NNW","ALAMEDA",37.7998,-122.2814,3747988,12216884
201502,1417122,554907,3,2.14,"NNW","ALAMEDA",37.8003,-122.2778,3748018,12216668
201502,1417122,554907,4,2.34,"NNW","ALAMEDA",37.8031,-122.279,3748186,12216740
201502,1417122,554908,1,7.28,"ENE","RUTHERFORD",38.5069,-122.2939,3830414,12217634
201502,1417122,554908,2,6.81,"ENE","RUTHERFORD",38.5,-122.3,3830000,12218000
201502,1417122,554908,3,7.27,"ENE","RUTHERFORD",38.499,-122.2909,3829940,12217454
201502,1417122,554908,4,7.44,"ENE","RUTHERFORD",38.5044,-122.2897,3830264,12217382
201502,1417122,554909,1,.95,"NW","WEST MENIO PARK",37.4605,-122.2911,3727630,12217466
201502,1417122,554909,2,.91,"NW","WEST MENIO PARK",37.4599,-122.2909,3727594,12217454
201502,1417122,554909,3,.89,"NW","WEST MENIO PARK",37.4599,-122.2904,3727594,12217424
201502,1417122,554909,4,.93,"NW","WEST MENIO PARK",37.4606,-122.2906,3727636,12217436
201502,1417122,554910,1,1.13,"E","VALLEY FORD",38.3181,-122.8992,3819086,12253952
201502,1417122,554910,2,1.08,"E","VALLEY FORD",38.32,-122.9,3819200,12254000
201502,1417122,554910,3,1.49,"E","VALLEY FORD",38.3222,-122.8926,3819332,12253556
201502,1417122,554910,4,1.34,"E","VALLEY FORD",38.3178,-122.8954,3819068,12253724
201502,1417122,554911,1,1.3,"NNW","CAMPBELL",37.3182,-121.9761,3719092,12158566
201502,1417122,554911,2,1.2,"NNW","CAMPBELL",37.3164,-121.9773,3718984,12158638
201502,1417122,554911,3,1.13,"NNW","CAMPBELL",37.316,-121.9741,3718960,12158446
201502,1417122,554911,4,1.24,"N","CAMPBELL",37.3178,-121.973,3719068,12158380
201502,1417122,554912,1,.88,"WSW","SAN JOSE",37.3251,-121.8947,3719506,12153682
201502,1417122,554912,2,.62,"WSW","SAN JOSE",37.3253,-121.8895,3719518,12153370
201502,1417122,554912,3,.69,"SW","SAN JOSE",37.3231,-121.889,3719386,12153340
201502,1417122,554912,4,.89,"SW","SAN JOSE",37.3226,-121.8932,3719356,12153592
201502,1417122,554913,1,1.72,"E","CAMPBELL",37.2952,-121.9393,3717712,12156358
201502,1417122,554913,2,1.8,"NNW","CAMBRIAN PARK",37.2953,-121.9377,3717718,12156262
201502,1416925,551748,1,.2,"S","CEDAR HAMMOCK",27.4771,-82.5294,2728626,8231764
201502,1416927,551831,1,0,"N","BONNERS FERRY",48.7,-116.32,4842000,11619200
201502,1416914,551582,1,0,"N","JACKSON HAWKINS FLD",32.33,-90.22,3219800,9013200
201502,1416914,551887,1,.65,"ENE","STOUT",32.3033,-90.8897,3218198,9053382
201502,1416914,551888,1,2.68,"SSE","REGANTON",32.1161,-90.7278,326966,9043668
201502,1416914,551889,1,1.38,"S","(NMM)NAS MERIDIAN",32.53,-88.57,3231800,8834200
201502,1416915,551570,1,1.16,"E","TRANSYLVANIA",32.68,-91.18,3240800,9110800
201502,1416915,551571,1,.69,"S","OAK RIDGE",32.62,-91.77,3237200,9146200
201502,92070,551643,1,0,"N","BANDON",43.12,-124.42,437200,12425200
201502,92070,551643,2,1.51,"W","MYRTLE PT",43.07,-124.16,434200,1249600
201502,92070,551643,3,1.51,"E","NORWAY",43.1,-124.12,436000,1247200
201502,92070,551643,4,.5,"E","COALEDO",43.23,-124.22,4313800,12413200
201502,92070,551643,5,.86,"NW","BULLARDS",43.16,-124.41,439600,12424600
201502,1416916,551647,1,2.62,"WNW","BYERTE",42.93,-124.17,4255800,12410200
201502,1416916,551647,2,.51,"E","POWERS STATE ARPT",42.87,-124.06,4252200,1243600
201502,1416916,551647,3,3.54,"E","BROADBENT",43.02,-124.08,431200,1244800
201502,1416916,551647,4,.86,"NW","MYRTLE PT",43.08,-124.14,434800,1248400
201502,1416916,551647,5,2.02,"W","MYRTLE PT",43.07,-124.17,434200,12410200
201502,1416917,551652,1,3.15,"SSW","RIDDLE",42.91,-123.4,4254600,12324000
201502,1416917,551652,2,2.14,"ESE","RIDDLE",42.94,-123.33,4256400,12319800
201502,1416917,551652,3,1.67,"ENE","RIDDLE",42.96,-123.34,4257600,12320400
201502,1416917,551652,4,4.95,"NE","DADS CREEK",42.93,-123.48,4255800,12328800
201502,1416917,551652,5,3.68,"NE","DADS CREEK",42.91,-123.49,4254600,12329400
201502,1416918,551654,1,1.71,"NW","MARIAL",42.74,-123.9,4244400,12354000
201502,1416918,551654,2,2.07,"N","WEDDERBURN",42.46,-124.42,4227600,12425200
201502,1416918,551654,3,3.45,"S","GOLD BEACH MUNI ARPT",42.37,-124.42,4222200,12425200
201502,1416918,551654,4,7.75,"SSE","MARIAL",42.61,-123.85,4236600,12351000
201502,1416918,551654,5,6.74,"ENE","MARIAL",42.74,-123.75,4244400,12345000
201502,1416919,551657,1,2.48,"NE","HAMBURG",41.8,-123.03,4148000,1231800
201502,1416919,551657,2,10.73,"SSW","HAMBURG",41.64,-123.16,4138400,1239600
201502,1416919,551657,3,0,"N","FT JONES SCOT VLY AR",41.55,-122.85,4133000,12251000
201502,1416919,551657,4,1.7,"ENE","FT JONES",41.63,-122.8,4137800,12248000
201502,1416892,551140,1,11.97,"E","VERO BEACH",27.6554,-80.3766,2739324,8022596
201502,1416892,551193,1,3.74,"E","STUART",27.191,-80.19,2711460,8011400
201502,1416914,551574,1,4.06,"WSW","FARMHAVEN",32.65,-89.81,3239000,8948600
201502,1416914,551575,1,1.34,"WNW","JACKSON",32.338,-90.191,3220280,9011460
201502,1416914,551572,1,0,"N","EDWARDS",32.33,-90.6,3219800,9036000
201502,1416914,551573,1,.9,"SE","RAYMOND",32.26,-90.42,3215600,9025200
201502,1416891,551138,1,.69,"S","WHITE CITY",27.36,-80.33,2721600,8019800
201502,1416914,551577,1,3.27,"NNW","ST ANN",32.82,-89.68,3249200,8940800
201502,1416914,551578,1,1.74,"W","MADDEN",32.68,-89.38,3240800,8922800
201502,1416914,551579,1,1.89,"SE","CRYSTAL SPGS",31.9599,-90.348,3157594,9020880
201502,1416914,551580,1,0,"N","HOPE",32.75,-89.25,3245000,8915000
201502,1416914,551581,1,2.56,"WNW","DE KALB",32.7904,-88.6869,3247424,8841214
201502,1416922,551724,3,6.21,"SW","O BRIEN",42.0065,-123.7857,42390,12347142
201502,1416922,551724,4,13.65,"SE","HOLLAND",42.0126,-123.316,42756,12318960
201502,1416919,551657,5,6.1,"SSE","SCOTT BAR",41.67,-122.95,4140200,12257000
201502,1416920,551660,1,2.07,"NE","CLEAR CREEK",41.74,-123.42,4144400,12325200
201502,1416920,551660,2,2.81,"S","SEIAD VLY",41.81,-123.21,4148600,12312600
201502,1416920,551660,3,1.69,"WNW","SCOTT BAR",41.76,-123.03,4145600,1231800
201502,1416920,551660,4,.51,"E","HORSE CREEK",41.83,-122.99,4149800,12259400
201502,1416922,551721,3,6.34,"S","LINCOLN",42.0085,-122.4097,42510,12224582
201502,1416922,551721,4,3.71,"SSE","PROSPECT",42.6986,-122.4591,4241916,12227546
201502,1416922,551724,1,4.6,"SSE","PLACER",42.5693,-123.2831,4234158,12316986
201502,1416921,551679,4,5.32,"WNW","CALLAHAN",41.3523,-122.8931,4121138,12253586
201502,1416922,551721,1,7.92,"N","WIMER",42.6441,-123.1348,4238646,1238088
201502,1416922,551721,2,1.57,"WNW","COPPER",42.0411,-123.1567,422466,1239402
201502,1416922,551724,2,8.65,"NW","GALICE",42.6542,-123.7061,4239252,12342366
201502,1416922,551739,2,7.92,"NNE","LANGLOIS",43.0211,-124.3762,431266,12422572
201502,1416922,551739,3,18.74,"NNW","MARIAL",42.9729,-124.0137,4258374,124822
201502,1416922,551734,1,0,"N","(4BK)BROOKINGS",42.05,-124.28,423000,12416800
201502,1416922,551734,2,0,"N","GOLD BEACH",42.25,-124.42,4215000,12425200
201502,1416924,551747,1,2.32,"S","WEED ARPT",41.4366,-122.4536,4126196,12227216
201502,1416924,551747,2,4.49,"W","DUNSMUIR",41.2076,-122.3547,4112456,12221282
201502,1416922,551739,4,46.6,"NNE","LANGLOIS",43.4812,-123.9368,4328872,12356208
201502,92605,554904,2,2.29,"NW","LARKFIELD",38.5733,-122.7603,3834398,12245618
201502,92605,554904,3,2.25,"NW","LARKFIELD",38.5735,-122.7587,3834410,12245522
201502,92605,554905,1,1.75,"N","ATHERTON",37.4953,-122.2317,3729718,12213902
201502,92605,554905,2,1.88,"SE","(SQL)SAN CARLOS ARPT",37.4976,-122.2306,3729856,12213836
201502,92605,554905,3,1.77,"SSE","(SQL)SAN CARLOS ARPT",37.4979,-122.2338,3729874,12214028
201502,92605,554905,4,1.83,"N","ATHERTON",37.4962,-122.2344,3729772,12214064
201502,1416921,551679,2,0,"N","FT JONES",41.62,-122.83,4137200,12249800
201502,1416920,551660,5,6.33,"NNE","HAPPY CAMP",41.88,-123.32,4152800,12319200
201502,1416921,551679,1,0,"N","CALLAHAN",41.32,-122.8,4119200,12248000
201503,1417684,554825,1,0,"N","QUEENS",38.85,-80.13,3851000,807800
201503,1417684,554825,2,.28,"SSE","ELLAMORE",38.9264,-80.0975,3855584,805850
201503,1417684,554825,3,0,"SSE","YOKUM",38.97,-80.07,3858200,804200
201503,1417684,554825,4,3.28,"NE","FIVE FORKS",39.0338,-80.0572,392028,803432
201503,1417684,554825,5,.48,"NNW","WHITE OAK",39.0761,-80.2543,394566,8015258
201503,1417684,554825,6,1.72,"SSW","FRENCHTON",38.8476,-80.3642,3850856,8021852
201503,1417684,554825,7,0,"SSW","ALEXANDER",38.78,-80.22,3846800,8013200
201503,1417684,555373,1,1,"W","SEEBERT",38.13,-80.1984,387800,8011904
201503,1417684,555373,2,.4,"WNW","CAMPBELLTOWN",38.2524,-80.0868,3815144,805208
201503,1417684,555373,3,1.87,"SSE","THORNY CREEK",38.2238,-80.0213,3813428,801278
201503,1417684,555373,4,1.49,"S","KENNISON",38.0986,-80.1774,385916,8010644
201503,1417689,567010,1,1.7,"W","BRANDAMORE",40.0735,-75.8617,404410,7551702
201503,1417689,567010,2,1.59,"W","BRANDAMORE",40.0732,-75.8598,404392,7551588
201503,1417689,567010,3,1.61,"W","BRANDAMORE",40.0711,-75.8605,404266,7551630
201503,1417689,567010,4,1.72,"W","BRANDAMORE",40.0717,-75.8625,404302,7551750
201503,1417690,566976,1,.62,"S","GRIGGSTOWN",40.4411,-74.6182,4026466,7437092
201503,1417690,566976,2,.86,"SSE","GRIGGSTOWN",40.4395,-74.6111,4026370,7436666
201503,1417690,566976,3,1,"SSE","GRIGGSTOWN",40.4366,-74.6127,4026196,7436762
201503,1417690,566976,4,.78,"S","GRIGGSTOWN",40.4387,-74.62,4026322,7437200
201503,1417690,567013,1,.6,"SW","REAVILLE",40.4742,-74.8285,4028452,7449710
201503,1417690,567013,2,.54,"SW","REAVILLE",40.4742,-74.8268,4028452,7449608
201503,1417690,567013,3,.61,"SW","REAVILLE",40.4728,-74.8267,4028368,7449602
201503,1417690,567013,4,.67,"SW","REAVILLE",40.4728,-74.8286,4028368,7449716
201503,1417692,554995,1,.93,"SSE","(CRW) YEAGER ARPT",38.3571,-81.5954,3821426,8135724
201503,1417692,554995,2,.44,"S","(CRW) YEAGER ARPT",38.3637,-81.5988,3821822,8135928
201503,1417692,554995,3,.72,"SW","(CRW) YEAGER ARPT",38.3641,-81.6111,3821846,8136666
201503,1417692,554995,4,.52,"WSW","(CRW) YEAGER ARPT",38.367,-81.6089,3822020,8136534
201503,1417692,554995,5,.15,"SSW","(CRW) YEAGER ARPT",38.3679,-81.6009,3822074,8136054
201503,1417692,554995,6,.36,"SE","(CRW) YEAGER ARPT",38.3666,-81.595,3821996,8135700
201503,1417692,554995,7,.82,"SSE","(CRW) YEAGER ARPT",38.3595,-81.5928,3821570,8135568
201503,1417692,555241,1,.15,"SW","(CRW) YEAGER ARPT",38.3687,-81.6021,3822122,8136126
201503,1417692,555241,2,.19,"WSW","(CRW) YEAGER ARPT",38.3687,-81.603,3822122,8136180
201503,1417692,555241,3,.25,"SW","(CRW) YEAGER ARPT",38.367,-81.6027,3822020,8136162
201503,1417692,555241,4,.24,"SSW","(CRW) YEAGER ARPT",38.3668,-81.6019,3822008,8136114
201503,1417692,555241,5,.18,"SSW","(CRW) YEAGER ARPT",38.3677,-81.6014,3822062,8136084
201503,1417694,555247,1,.68,"NNW","HANGING ROCK",38.5584,-82.7265,3833504,8243590
201503,1417694,555247,2,0,"NNW","PEDRO",38.63,-82.67,3837800,8240200
201503,1417694,555247,3,0,"NNW","WATERLOO",38.7,-82.47,3842000,8228200
201503,1417694,555247,4,0,"NNW","SCOTTOWN",38.55,-82.38,3833000,8222800
201503,1417694,555247,5,.86,"NNE","MILLER",38.5421,-82.2965,3832526,8217790
201503,1417694,555247,6,1.11,"ESE","ROME",38.4442,-82.3309,3826652,8219854
201503,1417694,555247,7,.53,"SSW","NORTH KENOVA",38.4127,-82.5829,3824762,8234974
201503,1417694,555247,8,0,"SSW","SHERIDAN",38.47,-82.6,3828200,8236000
201503,1417694,555248,1,.89,"WSW","LANGSVILLE",39.0437,-82.1946,392622,8211676
201503,1417694,555248,2,1,"NW","PAGEVILLE",39.1802,-82.1632,3910812,829792
201503,1417694,555248,3,.4,"N","BUNINGHAM",39.1759,-82.0198,3910554,821188
201503,1417694,555248,4,2.01,"WSW","MIDDLEPORT",38.9861,-82.083,3859166,824980
201503,1417695,555249,1,0,"N","SOUTH SHORE",38.72,-82.97,3843200,8258200
201503,1417695,555249,2,1.29,"NNW","SILOAM",38.7482,-82.9056,3844892,8254336
201503,1417695,555249,3,1.35,"E","SILOAM",38.7268,-82.8754,3843608,8252524
201503,1417695,555249,4,.39,"NNW","EDGINGTON",38.6852,-82.8826,3841112,8252956
201503,1417695,555249,5,.64,"SE","GRAYS BRANCH",38.6432,-82.8622,3838592,8251732
201503,1417695,555249,6,1.05,"WNW","GREENUP",38.5858,-82.8479,3835148,8250874
201503,1417695,555249,7,.45,"SE","WORTHINGTON",38.5454,-82.7142,3832724,8242852
201503,1417695,555249,8,3.48,"SW","GREENUP",38.546,-82.8774,3832760,8252644
201503,1417695,555474,1,0,"N","WESTWOOD",38.48,-82.67,3828800,8240200
201503,1417695,555474,2,1.1,"NE","WESTWOOD",38.4909,-82.6552,3829454,8239312
201503,1417695,555474,3,.81,"E","ASHLAND",38.4715,-82.6152,3828290,8236912
201503,1417695,555474,4,1.71,"N","CATLETTSBURG",38.4444,-82.6053,3826664,8236318
201503,1417695,555474,5,.3,"SE","CATLETTSBURG",38.4175,-82.5955,3825050,8235730
201503,1417695,555474,6,1.53,"SSE","CATLETTSBURG",38.3983,-82.5945,3823898,8235670
201503,1417695,555474,7,1.91,"S","CATLETTSBURG",38.3924,-82.5993,3823544,8235958
201503,1417699,556337,1,5.61,"WNW","EAGLE ROCK",36.5855,-93.841,3635130,9350460
201503,1417699,556337,2,5.11,"WNW","EAGLE ROCK",36.5778,-93.8353,3634668,9350118
201503,1417699,556337,3,4.44,"WNW","EAGLE ROCK",36.5778,-93.8221,3634668,9349326
201503,1417699,556337,4,5.51,"WNW","EAGLE ROCK",36.593,-93.8336,3635580,9350016
201503,1417699,556338,1,2.21,"E","AVA",36.95,-92.61,3657000,9236600
201503,1417699,556338,2,1.91,"E","AVA",36.9511,-92.6154,3657066,9236924
201503,1417699,556338,3,2.39,"E","AVA",36.9457,-92.6071,3656742,9236426
201503,1417699,556338,4,2.57,"E","AVA",36.9457,-92.6037,3656742,9236222
201503,1417699,556339,1,2.43,"W","AVA MUNI MEML ARPT",36.9654,-92.7237,3657924,9243422
201503,1417699,556339,2,2.6,"W","AVA MUNI MEML ARPT",36.9638,-92.7264,3657828,9243584
201503,1417699,556339,3,2.67,"W","AVA MUNI MEML ARPT",36.9645,-92.7278,3657870,9243668
201503,1417699,556339,4,2.57,"W","AVA MUNI MEML ARPT",36.9661,-92.7263,3657966,9243578
201503,1417699,556340,1,1.77,"NE","ANN",37.05,-92.18,373000,9210800
201503,1417699,556340,2,1.92,"NE","ANN",37.0529,-92.1802,373174,9210812
201503,1417699,556340,3,1.52,"NNE","ANN",37.049,-92.1861,372940,9211166
201503,1417699,556340,4,1.59,"NE","ANN",37.0486,-92.183,372916,9210980
201503,1417699,556341,1,3.33,"E","LANTON",36.52,-91.74,3631200,9144400
201503,1417699,556341,2,3.32,"E","LANTON",36.5172,-91.7402,3631032,9144412
201503,1417699,556341,3,3.45,"E","LANTON",36.5175,-91.738,3631050,9144280
201503,1417699,556341,4,3.45,"E","LANTON",36.5199,-91.7378,3631194,9144268
201503,1417699,556342,1,0,"N","NOEL",36.55,-94.48,3633000,9428800
201503,1417699,556342,2,.14,"SW","NOEL",36.5484,-94.4815,3632904,9428890
201503,1417699,556342,3,.17,"WSW","NOEL",36.5487,-94.4827,3632922,9428962
201503,1417699,556342,4,.09,"WNW","NOEL",36.5506,-94.4815,3633036,9428890
201503,1417699,556343,1,1.5,"W","CALM",36.5496,-91.1971,3632976,9111826
201503,1417699,556343,2,1.29,"W","CALM",36.5532,-91.1929,3633192,9111574
201503,1417699,556343,3,.68,"WNW","CALM",36.5537,-91.1814,3633222,9110884
201503,1417699,556343,4,1.31,"WSW","CALM",36.5461,-91.1931,3632766,9111586
201503,1417699,556344,1,1.87,"SSE","COUCH",36.5739,-91.3706,3634434,9122236
201503,1417699,556344,2,2.05,"SSE","COUCH",36.5715,-91.3702,3634290,9122212
201503,1417699,556344,3,1.9,"SSE","COUCH",36.5731,-91.3733,3634386,9122398
201503,1417699,556344,4,1.77,"SSE","COUCH",36.5753,-91.3717,3634518,9122302
201503,1417699,556345,1,4.17,"NE","MANSFIELD",37.1655,-92.5303,379930,9231818
201503,1417699,556345,2,4.24,"NE","MANSFIELD",37.1655,-92.5282,379930,9231692
201503,1417699,556345,3,4.3,"NE","MANSFIELD",37.1665,-92.5283,379990,9231698
201503,1417699,556345,4,4.27,"NE","MANSFIELD",37.1668,-92.5294,3710008,9231764
201503,1417703,567007,1,.63,"S","GRIGGSTOWN",40.441,-74.6186,4026460,7437116
201503,1417703,567007,2,.87,"SSE","GRIGGSTOWN",40.4393,-74.6114,4026358,7436684
201503,1417703,567007,3,1,"SSE","GRIGGSTOWN",40.4366,-74.6129,4026196,7436774
201503,1417703,567007,4,.78,"S","GRIGGSTOWN",40.4387,-74.6199,4026322,7437194
201503,1417704,555257,1,1.17,"N","GRESHAM",32.2469,-95.3483,3214814,9520898
201503,1417704,555257,2,1.94,"W","COPLEN",32.2453,-95.3128,3214718,9518768
201503,1417704,555257,3,2.16,"ENE","GRESHAM",32.2378,-95.3143,3214268,9518858
201502,1416921,551679,3,2.93,"NNW","ORO FINO",41.6198,-122.9398,4137188,12256388
201502,1416924,551747,3,2.38,"ESE","DUNSMUIR",41.2019,-122.2311,4112114,12213866
201502,1416924,551747,4,2.65,"ENE","EDGEWOOD",41.4839,-122.3822,4129034,12222932
201501,91258,547092,1,.17,"ESE","FLORENCE",34.7988,-87.6674,3447928,8740044
201501,91258,547092,3,.26,"ESE","FLORENCE",34.7983,-87.666,3447898,8739960
201501,91258,547092,4,.23,"SE","FLORENCE",34.7979,-87.6669,3447874,8740014
201501,91258,547092,5,.82,"SSW","FLORENCE",34.7884,-87.6731,3447304,8740386
201501,91258,547092,6,.61,"SSW","FLORENCE",34.7926,-87.6759,3447556,8740554
201501,91258,559276,1,.75,"WNW","ALBERTVILLE",34.2738,-86.2324,3416428,8613944
201501,91258,559276,2,.81,"N","ALBERTVILLE",34.2818,-86.2197,3416908,8613182
201501,91258,560004,1,1.5,"SE","RABBIT TOWN",34.2645,-86.2516,3415870,8615096
201503,1417663,554121,1,1.61,"ENE","BROOKS",38.0762,-85.6714,384572,8540284
201503,1417663,554121,2,1.96,"E","BROOKS",38.0754,-85.6647,384524,8539882
201503,1417663,554121,3,1.84,"E","BROOKS",38.0722,-85.6663,384332,8539978
201501,91258,560004,2,1.54,"SE","HUSTLERVILLE",34.3049,-86.1503,3418294,869018
201501,91259,555980,1,2.05,"SE","CUMBERLAND SPGS",35.3084,-86.2753,3518504,8616518
201501,91259,555980,2,2.09,"SE","CUMBERLAND SPGS",35.3089,-86.2735,3518534,8616410
201501,91259,555980,3,2.13,"SE","CUMBERLAND SPGS",35.3082,-86.2732,3518492,8616392
201501,91259,555980,4,2.09,"SE","CUMBERLAND SPGS",35.3077,-86.2749,3518462,8616494
201501,91270,552424,1,1.9,"ENE","LEWES DE",38.783,-75.119,3846980,757140
201501,91270,552425,1,.99,"SSW","NORTH CAPE MAY",38.968,-74.96,3858080,7457600
201501,91270,552427,1,17.77,"N","BOWERS BEACH DE",39.305,-75.377,3918300,7522620
201501,91270,552428,1,2.07,"SW","OCEAN CITY",39.2554,-74.602,3915324,7436120
201501,91270,552429,1,4.17,"WSW","BEACH HAVEN",39.5218,-74.3191,3931308,7419146
201501,91276,552409,1,0,"N","MILLVILLE",39.4,-75.03,3924000,751800
201501,91276,552410,1,.88,"SSW","OCEAN CITY MUNI ARPT",39.2584,-74.6068,3915504,7436408
201501,91686,555140,1,4.89,"S","PT. PLEASANT",40.0096,-74.059,40576,743540
201501,91687,555901,1,.52,"WSW","COOCH",39.6462,-75.7384,3938772,7544304
201501,91687,555901,3,.13,"NNE","COOCHS BRIDGE",39.6318,-75.729,3937908,7543740
201501,91687,555901,4,1.15,"W","BEAR",39.6278,-75.6914,3937668,7541484
201501,91687,555901,6,1.31,"N","BEAR",39.6487,-75.666,3938922,7539960
201501,91687,555901,7,1.03,"S","CHRISTIANA",39.6553,-75.6729,3939318,7540374
201501,91688,555911,1,1.66,"S","HARTFORD",39.9562,-74.8957,3957372,7453742
201501,91688,555911,2,1.55,"SSE","HARTFORD",39.9605,-74.8857,3957630,7453142
201501,91688,555911,4,1.07,"SE","HARTFORD",39.9687,-74.8861,3958122,7453166
201501,91688,555911,5,.96,"SE","HARTFORD",39.9686,-74.8896,3958116,7453376
201501,91688,555912,1,1.77,"SSW","PRINCETON",40.3257,-74.6807,4019542,7440842
201501,91688,555912,2,1.75,"N","CLARKSVILLE",40.3253,-74.6781,4019518,7440686
201501,91688,555912,3,1.14,"N","CLARKSVILLE",40.3163,-74.6823,4018978,7440938
201501,91688,555914,5,.91,"NNW","WERTSVILLE",40.4618,-74.8077,4027708,7448462
201501,91688,555914,6,.93,"N","WERTSVILLE",40.4633,-74.7979,4027798,7447874
201501,91688,555914,7,1.07,"SE","REAVILLE",40.4703,-74.8041,4028218,7448246
201501,91688,555914,8,.45,"WSW","REAVILLE",40.4764,-74.8272,4028584,7449632
201501,91688,555915,1,1.33,"N","MILLTOWN ZIGFIELD AR",40.4191,-74.4325,4025146,7425950
201501,91689,555902,2,.46,"W","FLORIDA PARK",39.9791,-75.4385,3958746,7526310
201501,91689,555902,3,.39,"W","FLORIDA PARK",39.9796,-75.4374,3958776,7526244
201501,91689,555902,4,.14,"N","EDGEMONT",39.9721,-75.4297,3958326,7525782
201501,91689,555902,5,.6,"SE","EDGEMONT",39.9644,-75.4213,3957864,7525278
201501,91689,555902,6,.55,"SSE","EDGEMONT",39.9623,-75.4272,3957738,7525632
201501,91689,555904,1,1.09,"WSW","TORRESDALE",40.0442,-75.0192,402652,751152
201501,91688,555912,4,.61,"N","CLARKSVILLE",40.3088,-74.6791,4018528,7440746
201501,91688,555912,5,.47,"NNW","CLARKSVILLE",40.3062,-74.6839,4018372,7441034
201501,91688,555913,1,.81,"SSW","BRANCHBURG PARK",40.5592,-74.6859,4033552,7441154
201501,91688,555913,2,1.94,"WSW","BRANCHBURG PARK",40.5605,-74.7148,4033630,7442888
201501,91688,555913,3,1.27,"SW","NESHANIC STATION",40.5071,-74.7471,4030426,7444826
201501,91688,555913,4,1.47,"W","NESHANIC",40.4988,-74.748,4029928,7444880
201501,91688,555913,5,.98,"S","GRIGGSTOWN",40.4358,-74.6202,4026148,7437212
201501,91688,555913,6,.87,"SSE","GRIGGSTOWN",40.4382,-74.6141,4026292,7436846
201501,91688,555913,7,2.01,"SSE","EAST MILLSTONE",40.4716,-74.5617,4028296,7433702
201501,91688,555914,1,.62,"ESE","COPPER HILL",40.477,-74.8388,4028620,7450328
201501,91688,555914,3,.81,"SE","COPPER HILL",40.4713,-74.8397,4028278,7450382
201501,91688,555914,4,1.13,"SSW","REAVILLE",40.4645,-74.827,4027870,7449620
201502,1416922,551734,3,.33,"S","OPHIR",42.5652,-124.379,4233912,12422740
201502,1416922,551734,5,9.07,"E","PORT ORFORD",42.7511,-124.3213,4245066,12419278
201502,1416922,551734,6,9.37,"E","HARBOR",42.0248,-124.0906,421488,1245436
201502,1416922,551734,4,1.75,"SSE","PORT ORFORD",42.7268,-124.4861,4243608,12429166
201503,1417659,554633,3,0,"NE","LE ROY",38.9,-81.55,3854000,8133000
201501,91689,555904,2,.85,"W","TORRESDALE",40.0512,-75.0161,403072,75966
201501,91689,555904,4,1.82,"W","TORRESDALE",40.0504,-75.0343,403024,752058
201501,91689,555904,5,1.36,"S","BUSTLETON",40.0606,-75.0336,403636,752016
201501,91689,555904,6,1.47,"SSW","BUSTLETON",40.06,-75.0393,403600,752358
201501,91689,555904,7,1.98,"SSW","BUSTLETON",40.0533,-75.0434,403198,752604
201501,91689,555904,8,1.67,"NNW","TACONY",40.0431,-75.0393,402586,752358
201501,92564,555984,1,.68,"SSE","SPRINGFIELD",40.6909,-74.2952,4041454,7417712
201501,92564,555984,2,.77,"SSE","SPRINGFIELD",40.6896,-74.2948,4041376,7417688
201501,92564,555984,4,.28,"SE","UNION",40.6971,-74.2462,4041826,7414772
201501,92564,555984,5,.19,"ESE","UNION",40.6986,-74.2468,4041916,7414808
201501,92565,555981,1,1.05,"ESE","FLEETWOOD",40.9152,-73.8108,4054912,7348648
201501,92565,555981,2,1.09,"W","EAST CHESTER",40.9309,-73.8008,4055854,7348048
201501,92565,555981,3,1.35,"WNW","EAST CHESTER",40.935,-73.805,4056100,7348300
201501,92565,555981,4,1.44,"NW","EAST CHESTER",40.9458,-73.7979,4056748,7347874
201501,92565,555981,5,1.49,"E","TUCKAHOE",40.9463,-73.8018,4056778,7348108
201501,92565,555981,7,.92,"ESE","FLEETWOOD",40.9161,-73.8131,4054966,7348786
201501,92565,555982,1,.6,"ENE","FLEETWOOD",40.9227,-73.819,4055362,7349140
201501,92565,555982,2,1.15,"E","FLEETWOOD",40.9227,-73.8083,4055362,7348498
201501,92565,555982,3,1.15,"E","FLEETWOOD",40.9211,-73.8081,4055266,7348486
201501,92565,555982,4,.56,"ENE","FLEETWOOD",40.9218,-73.8195,4055308,7349170
201502,1416922,551739,1,37.63,"NNE","LANGLOIS",43.4412,-124.2334,4326472,12414004
201501,1415940,555980,1,2.05,"SE","CUMBERLAND SPGS",35.3084,-86.2753,3518504,8616518
201501,1415940,555980,2,2.09,"SE","CUMBERLAND SPGS",35.3089,-86.2735,3518534,8616410
201501,1415940,555980,3,2.13,"SE","CUMBERLAND SPGS",35.3082,-86.2732,3518492,8616392
201501,1415940,555980,4,2.09,"SE","CUMBERLAND SPGS",35.3077,-86.2749,3518462,8616494
201501,1415950,552424,1,1.9,"ENE","LEWES DE",38.783,-75.119,3846980,757140
201501,1415950,552425,1,.99,"SSW","NORTH CAPE MAY",38.968,-74.96,3858080,7457600
201501,1415950,552427,1,17.77,"N","BOWERS BEACH DE",39.305,-75.377,3918300,7522620
201501,1415950,552428,1,2.07,"SW","OCEAN CITY",39.2554,-74.602,3915324,7436120
201501,1415950,552429,1,4.17,"WSW","BEACH HAVEN",39.5218,-74.3191,3931308,7419146
201501,1415953,552409,1,0,"N","MILLVILLE",39.4,-75.03,3924000,751800
201501,1415953,552410,1,.88,"SSW","OCEAN CITY MUNI ARPT",39.2584,-74.6068,3915504,7436408
201501,1415955,547133,1,1.46,"SW","LEAVENWORTH",47.5878,-120.6756,4735268,12040536
201501,1415955,547133,2,1.43,"SW","LEAVENWORTH",47.588,-120.6749,4735280,12040494
201501,1415955,547133,3,1.44,"SW","LEAVENWORTH",47.5876,-120.6747,4735256,12040482
201501,1415955,547133,4,1.46,"SW","LEAVENWORTH",47.5875,-120.6753,4735250,12040518
201501,1415960,547093,1,2.37,"SSE","LANGFORDS XRDS",34.17,-80.88,3410200,8052800
201501,1415960,547094,1,.9,"NW","CAMDEN",34.26,-80.61,3415600,8036600
201501,1415960,547094,2,.48,"SSE","BETHUNE",34.4133,-80.3478,3424798,8020868
201501,1415960,547587,1,1.25,"NW","ASHLEIGH",33.3113,-81.3369,3318678,8120214
201501,1416047,550941,1,1.79,"NNW","HAYES",31.522,-85.086,3131320,855160
201501,1416047,550941,2,1.73,"NNW","HAYES",31.5244,-85.0769,3131464,854614
201501,1416047,550942,1,1.31,"WSW","PINCKARD",31.304,-85.561,3118240,8533660
201501,1416047,550942,2,.23,"NE","PINCKARD",31.3126,-85.5377,3118756,8532262
201501,1416047,550943,1,1.1,"NW","MIDLAND CITY",31.3205,-85.5041,3119230,8530246
201501,1416047,550946,1,.59,"W","PINCKARD",31.31,-85.55,3118600,8533000
201501,1416047,550949,1,.69,"N","WICKSBURG",31.21,-85.62,3112600,8537200
201501,1416047,550950,1,1.96,"WSW","TUMBLETON",31.3879,-85.2801,3123274,8516806
201501,1416048,550951,1,0,"N","JONES CROSSING",31.64,-84.97,3138400,8458200
201501,1416048,550952,1,2.15,"NNE","BELLVILLE",31.62,-84.88,3137200,8452800
201501,1416048,550953,1,3.64,"SE","MITCHELL COUNTY ARPT",31.17,-84.19,3110200,8411400
201501,1416048,550954,1,1.37,"ESE","POPLAR ARBOR CHURCH",31.25,-83.95,3115000,8357000
201501,1416048,550955,1,1.19,"NW","MOULTRIE",31.183,-83.7931,3110980,8347586
201501,1416048,550956,1,1.37,"ENE","BROOKFIELD",31.42,-83.37,3125200,8322200
201501,1416048,550957,1,2.28,"WNW","OMEGA",31.354,-83.625,3121240,8337500
201501,1416048,550957,2,2.09,"WNW","OMEGA",31.356,-83.62,3121360,8337200
201501,1416048,550959,1,.57,"NNW","BROOKFIELD",31.417,-83.395,3125020,8323700
201501,1416048,550959,2,.7,"N","BROOKFIELD",31.42,-83.392,3125200,8323520
201501,1416052,547892,1,1.37,"WNW","BROWNDALE",31.13,-93.99,317800,9359400
201501,1416078,548156,1,0,"N","LANCASTER",34.72,-80.77,3443200,8046200
201501,1416078,548156,2,2.6,"NNE","TRADESVILLE",34.8025,-80.527,3448150,8031620
201501,1416078,548156,3,1.88,"WNW","HAILE GOLD MINE",34.5937,-80.5586,3435622,8033516
201501,1416078,548156,4,1.43,"SW","CAUTHENS XRDS",34.6084,-80.7907,3436504,8047442
201501,1416117,548540,1,.89,"SE","JONESBORO",35.46,-79.16,3527600,799600
201501,1416117,548543,1,.89,"SE","HARDY XRDS",35.46,-78.61,3527600,7836600
201501,1416117,548546,1,2.35,"ENE","FLOWERS",35.66,-78.31,3539600,7818600
201501,1416160,549098,1,1.79,"ESE","ENGLISH",33.6176,-94.8426,3337056,9450556
201501,1416160,549098,2,1.73,"ENE","ENGLISH",33.6431,-94.8443,3338586,9450658
201501,1416160,549098,3,1.59,"NW","WHITE ROCK",33.665,-94.9511,3339900,9457066
201501,1416160,549098,4,1.71,"SW","WHITE ROCK",33.6304,-94.948,3337824,9456880
201501,1416160,549106,1,2.73,"SE","MC ELROY",31.19,-93.97,3111400,9358200
201501,1416161,549099,1,1.15,"NNE","NEAL SPGS",33.9351,-94.3715,3356106,9422290
201501,1416161,549099,2,2.92,"NNW","HORATIO",33.9673,-94.3739,3358038,9422434
201501,1416161,549099,3,1.83,"N","DOGTOWN",33.9765,-94.4714,3358590,9428284
201501,1416161,549099,4,.73,"S","DOGTOWN",33.9397,-94.4725,3356382,9428350
201501,1416161,549100,1,1.96,"NW","DE QUEEN",34.0513,-94.3527,343078,9421162
201501,1416161,549100,2,1.77,"SSE","AVON",34.0553,-94.3118,343318,9418708
201501,1416161,549100,3,.75,"ESE","DE QUEEN",34.0245,-94.3187,341470,9419122
201501,1416161,549100,4,1.51,"WSW","DE QUEEN",34.024,-94.3554,341440,9421324
201501,1416162,549101,1,.58,"W","REISOR",32.42,-93.86,3225200,9351600
201501,1416162,549102,1,.69,"S","JEWELLA",32.47,-93.8,3228200,9348000
201501,1416162,549103,1,1.17,"E","MANSFIELD",32.03,-93.7,321800,9342000
201501,1416162,549104,1,0,"N","SHREVEPORT",32.48,-93.75,3228800,9345000
201501,1416162,549105,1,.58,"E","FOSTERS",32.52,-93.66,3231200,9339600
201501,1416162,549107,1,.58,"E","FOSTERS",32.52,-93.66,3231200,9339600
201501,1416162,549108,1,0,"N","MINDEN",32.62,-93.28,3237200,9316800
201501,1416162,549109,1,.59,"E","MANY",31.57,-93.47,3134200,9328200
201501,1416162,549110,1,.91,"SW","SHAMROCK MILL",31.69,-93.34,3141400,9320400
201501,1416162,549111,1,.59,"E","CAMPTI",31.9,-93.11,3154000,936600
201501,1416162,549112,1,1.36,"WSW","NATCHITOCHES",31.76,-93.1,3145600,936000
201501,1416162,549113,1,2.24,"NE","ATLANTA",31.82,-92.72,3149200,9243200
201501,1416162,549114,1,.59,"E","SIKES",32.08,-92.49,324800,9229400
201501,1416162,549115,1,1.36,"WSW","BLANKSTON",32.24,-92.15,3214400,929000
201501,1416169,549164,1,0,"N","PEARLINGTON",30.25,-89.62,3015000,8937200
201501,1416169,549165,1,0,"N","MAGNOLIA",31.15,-90.47,319000,9028200
201501,1416169,549166,1,8,"NW","TYLERTOWN",31.2019,-90.2457,3112114,9014742
201501,1416172,549199,1,3.6,"E","TILTON",31.43,-89.96,3125800,8957600
201501,1416172,549200,1,.59,"E","PRENTISS",31.6,-89.87,3136000,8952200
201501,1416172,549201,1,.59,"E","MT CARMEL",31.65,-89.79,3139000,8947400
201501,1416172,549208,1,4.54,"SW","ARBO",31.68,-89.68,3140800,8940800
201501,1416172,549208,2,2.71,"SSW","ARBO",31.6972,-89.6553,3141832,8939318
201501,1416172,549220,1,2.38,"SSW","ARBO",31.7,-89.65,3142000,8939000
201501,1416172,549220,2,1.65,"S","ARBO",31.7064,-89.6341,3142384,8938046
201501,1416172,549222,1,1.76,"W","SMITH",31.75,-89.6,3145000,8936000
201501,1416172,549233,1,.07,"WNW","MOSS HILL",32.1304,-89.0711,327824,894266
201501,1416172,549233,2,4.62,"E","HERO",32.224,-88.9911,3213440,8859466
201501,1416172,549238,1,0,"N","TAYLORSVILLE",31.83,-89.43,3149800,8925800
201501,1416172,549241,1,1.75,"W","RANKIN",32.28,-89.95,3216800,8957000
201501,1416172,549251,1,3.45,"S","CHUNKY",32.27,-88.93,3216200,8855800
201501,1416172,549251,2,1.81,"SE","CHUNKY",32.3,-88.91,3218000,8854600
201501,1416172,549253,1,2.23,"SW","POINT",32.3,-88.91,3218000,8854600
201501,1416172,549253,2,3,"WSW","NELLIEBURG",32.3834,-88.8275,3223004,8849650
201501,1416172,549257,1,1.35,"ENE","FULCHER",33.34,-89.11,3320400,896600
201501,1416172,549262,1,.58,"W","BAILEY",32.47,-88.74,3228200,8844400
201501,1416172,549262,2,1.85,"ENE","OBADIAH",32.509,-88.7,3230540,8842000
201501,1416172,549269,1,.96,"E","TOOMSUBA",32.4195,-88.5036,3225170,8830216
201501,1416172,549269,2,.96,"E","TOOMSUBA",32.4177,-88.5038,3225062,8830228
201501,1416172,549269,3,.73,"E","TOOMSUBA",32.4179,-88.5077,3225074,8830462
201501,1416172,549269,4,.58,"ESE","TOOMSUBA",32.4181,-88.5102,3225086,8830612
201501,1416172,549269,5,.7,"E","TOOMSUBA",32.4195,-88.508,3225170,8830480
201501,1416172,549270,1,3.6,"SE","TERRELL",31.55,-89.68,3133000,8940800
201501,1416172,549270,2,4.02,"SE","TERRELL",31.5437,-89.6766,3132622,8940596
201501,1416172,549270,3,4.51,"ESE","TERRELL",31.5462,-89.6644,3132772,8939864
201501,1416172,549270,4,4.41,"ESE","TERRELL",31.5526,-89.6624,3133156,8939744
201501,1416172,549270,5,3.85,"ESE","TERRELL",31.5548,-89.6718,3133288,8940308
201501,1416172,549271,1,.69,"S","ROSE HILL",32.14,-89,328400,8900
201501,1416172,549271,2,1.1,"SE","ROSE HILL",32.1388,-88.9865,328328,8859190
201501,1416172,549271,3,.89,"ESE","ROSE HILL",32.1446,-88.9863,328676,8859178
201501,1416172,549271,4,.65,"ESE","ROSE HILL",32.1478,-88.9892,328868,8859352
201501,1416172,549271,5,.32,"SSE","ROSE HILL",32.1455,-88.9988,328730,8859928
201501,1416172,549275,1,9.89,"NNE","COLUMBIA MARION ARPT",31.43,-89.75,3125800,8945000
201501,1416172,549275,2,9.82,"NNE","COLUMBIA MARION ARPT",31.4268,-89.7446,3125608,8944676
201501,1416172,549275,3,10,"NNE","COLUMBIA MARION ARPT",31.4282,-89.7414,3125692,8944484
201501,1416172,549275,4,10.15,"NNE","COLUMBIA MARION ARPT",31.4316,-89.7435,3125896,8944610
201501,1416172,549275,5,10.14,"NNE","COLUMBIA MARION ARPT",31.4328,-89.7471,3125968,8944826
201501,1416172,549278,1,1.03,"E","BASSFIELD",31.4995,-89.7325,3129970,8943950
201501,1416172,549278,2,1.29,"E","BASSFIELD",31.4999,-89.7282,3129994,8943692
201501,1416172,549278,3,1.36,"ENE","BASSFIELD",31.5043,-89.7275,3130258,8943650
201501,1416172,549278,4,1.1,"ENE","BASSFIELD",31.5039,-89.7318,3130234,8943908
201501,1416172,549284,1,2.83,"SSW","BASSFIELD",31.46,-89.76,3127600,8945600
201501,1416172,549284,2,2.11,"S","BASSFIELD",31.47,-89.7566,3128200,8945396
201501,1416172,549284,3,1.77,"SSW","BASSFIELD",31.4761,-89.7607,3128566,8945642
201501,1416172,549284,4,2.14,"SSW","BASSFIELD",31.472,-89.7655,3128320,8945930
201501,1416172,549284,5,2.86,"SSW","BASSFIELD",31.4612,-89.7667,3127672,8946002
201501,1416172,549288,1,1.06,"NNE","BAY SPGS",31.983,-89.2903,3158980,8917418
201501,1416172,549288,2,1.21,"NE","BAY SPGS",31.9836,-89.2868,3159016,8917208
201501,1416172,549288,3,.94,"NE","BAY SPGS",31.9777,-89.2867,3158662,8917202
201501,1416172,549288,4,.77,"NE","BAY SPGS",31.9777,-89.2904,3158662,8917424
201501,1416172,549290,1,4.15,"NNE","CALEDONIA",33.73,-88.29,3343800,8817400
201501,1416172,549291,1,1.6,"E","SMITH",31.7512,-89.5429,3145072,8932574
201501,1416172,549291,2,1.79,"E","SMITH",31.7515,-89.5396,3145090,8932376
201501,1416172,549291,3,1.78,"E","SMITH",31.7505,-89.5397,3145030,8932382
201501,1416172,549291,4,1.67,"E","SMITH",31.7505,-89.5416,3145030,8932496
201501,1416172,549291,5,1.59,"E","SMITH",31.7507,-89.5429,3145042,8932574
201501,1416172,549313,1,3.15,"SE","LAUDERDALE",32.4876,-88.482,3229256,8828920
201501,1416172,549313,2,4.9,"ESE","LAUDERDALE",32.4986,-88.4398,3229916,8826388
201501,1416172,549317,1,.69,"N","INTERSTATE CITY",33.51,-88.4,3330600,8824000
201501,1416172,549320,1,1.75,"N","RUSSELL",32.4253,-88.6021,3225518,8836126
201501,1416172,549323,1,1.5,"SSW","PATRICK",33.46,-88.79,3327600,8847400
201501,1416172,549330,1,.69,"S","STURGIS",33.34,-89.05,3320400,893000
201501,1416172,555830,1,6.84,"SSE","HICKORY",32.224,-88.9911,3213440,8859466
201501,1416172,555830,2,6.81,"SSE","HICKORY",32.2245,-88.9909,3213470,8859454
201501,1416173,549194,1,.69,"S","LAKE VLG",33.32,-91.28,3319200,9116800
201501,1416173,549194,2,1.35,"S","VAUCLUSE",33.3305,-91.1989,3319830,9111934
201501,1416173,549194,3,1.02,"NW","LUNA",33.3913,-91.2112,3323478,9112672
201501,1416173,549194,4,1.89,"W","YELLOW BAYOU",33.4016,-91.2827,3324096,9116962
201501,1416173,549194,5,.47,"NW","MC MILLIAN CORNER",33.3839,-91.3266,3323034,9119596
201501,1416176,556890,1,0,"N","(HQM)BOWERMAN FLD HO",46.98,-123.9,4658800,12354000
201501,1416176,556890,2,1,"N","ABERDEEN",46.9945,-123.82,4659670,12349200
201501,1416176,556890,3,2,"ESE","ABERDEEN",46.9689,-123.7808,4658134,12346848
201501,1416176,556890,4,2,"SW","ABERDEEN",46.9595,-123.85,4657570,12351000
201501,1416192,555140,1,4.89,"S","PT. PLEASANT",40.0096,-74.059,40576,743540
201501,1416193,555901,1,.52,"WSW","COOCH",39.6462,-75.7384,3938772,7544304
201501,1416193,555901,2,.84,"WSW","COOCH",39.6453,-75.7445,3938718,7544670
201501,1416193,555901,3,.13,"NNE","COOCHS BRIDGE",39.6318,-75.729,3937908,7543740
201501,1416193,555901,4,1.15,"W","BEAR",39.6278,-75.6914,3937668,7541484
201501,1416193,555901,5,.46,"N","BEAR",39.6366,-75.6711,3938196,7540266
201501,1416193,555901,6,1.31,"N","BEAR",39.6487,-75.666,3938922,7539960
201501,1416193,555901,7,1.03,"S","CHRISTIANA",39.6553,-75.6729,3939318,7540374
201501,1416194,555911,1,1.66,"S","HARTFORD",39.9562,-74.8957,3957372,7453742
201501,1416194,555911,2,1.55,"SSE","HARTFORD",39.9605,-74.8857,3957630,7453142
201501,1416194,555911,3,1.4,"SE","HARTFORD",39.9639,-74.8841,3957834,7453046
201501,1416194,555911,4,1.07,"SE","HARTFORD",39.9687,-74.8861,3958122,7453166
201501,1416194,555911,5,.96,"SE","HARTFORD",39.9686,-74.8896,3958116,7453376
201501,1416194,555912,1,1.77,"SSW","PRINCETON",40.3257,-74.6807,4019542,7440842
201501,1416194,555912,2,1.75,"N","CLARKSVILLE",40.3253,-74.6781,4019518,7440686
201501,1416194,555912,3,1.14,"N","CLARKSVILLE",40.3163,-74.6823,4018978,7440938
201501,1416194,555912,4,.61,"N","CLARKSVILLE",40.3088,-74.6791,4018528,7440746
201501,1416194,555912,5,.47,"NNW","CLARKSVILLE",40.3062,-74.6839,4018372,7441034
201501,1416194,555912,6,1.24,"NNW","CLARKSVILLE",40.3171,-74.6872,4019026,7441232
201501,1416194,555913,1,.81,"SSW","BRANCHBURG PARK",40.5592,-74.6859,4033552,7441154
201501,1416194,555913,2,1.94,"WSW","BRANCHBURG PARK",40.5605,-74.7148,4033630,7442888
201501,1416194,555913,3,1.27,"SW","NESHANIC STATION",40.5071,-74.7471,4030426,7444826
201501,1416194,555913,4,1.47,"W","NESHANIC",40.4988,-74.748,4029928,7444880
201501,1416194,555913,5,.98,"S","GRIGGSTOWN",40.4358,-74.6202,4026148,7437212
201501,1416194,555913,6,.87,"SSE","GRIGGSTOWN",40.4382,-74.6141,4026292,7436846
201501,1416194,555913,7,2.01,"SSE","EAST MILLSTONE",40.4716,-74.5617,4028296,7433702
201501,1416194,555914,1,.62,"ESE","COPPER HILL",40.477,-74.8388,4028620,7450328
201501,1416194,555914,2,.46,"SE","COPPER HILL",40.4746,-74.8449,4028476,7450694
201501,1416194,555914,3,.81,"SE","COPPER HILL",40.4713,-74.8397,4028278,7450382
201501,1416194,555914,4,1.13,"SSW","REAVILLE",40.4645,-74.827,4027870,7449620
201501,1416194,555914,5,.91,"NNW","WERTSVILLE",40.4618,-74.8077,4027708,7448462
201501,1416194,555914,6,.93,"N","WERTSVILLE",40.4633,-74.7979,4027798,7447874
201501,1416194,555914,7,1.07,"SE","REAVILLE",40.4703,-74.8041,4028218,7448246
201501,1416194,555914,8,.45,"WSW","REAVILLE",40.4764,-74.8272,4028584,7449632
201501,1416194,555915,1,1.33,"N","MILLTOWN ZIGFIELD AR",40.4191,-74.4325,4025146,7425950
201501,1416194,555915,2,.97,"NNW","BROWNTOWN",40.4129,-74.3073,4024774,7418438
201501,1416195,555902,1,.56,"NW","EDGEMONT",39.9746,-75.4387,3958476,7526322
201501,1416195,555902,2,.46,"W","FLORIDA PARK",39.9791,-75.4385,3958746,7526310
201501,1416195,555902,3,.39,"W","FLORIDA PARK",39.9796,-75.4374,3958776,7526244
201501,1416195,555902,4,.14,"N","EDGEMONT",39.9721,-75.4297,3958326,7525782
201501,1416195,555902,5,.6,"SE","EDGEMONT",39.9644,-75.4213,3957864,7525278
201501,1416195,555902,6,.55,"SSE","EDGEMONT",39.9623,-75.4272,3957738,7525632
201501,1416195,555904,1,1.09,"WSW","TORRESDALE",40.0442,-75.0192,402652,751152
201501,1416195,555904,2,.85,"W","TORRESDALE",40.0512,-75.0161,403072,75966
201501,1416195,555904,3,1.07,"WNW","TORRESDALE",40.0532,-75.0197,403192,751182
201501,1416195,555904,4,1.82,"W","TORRESDALE",40.0504,-75.0343,403024,752058
201501,1416195,555904,5,1.36,"S","BUSTLETON",40.0606,-75.0336,403636,752016
201501,1416195,555904,6,1.47,"SSW","BUSTLETON",40.06,-75.0393,403600,752358
201501,1416195,555904,7,1.98,"SSW","BUSTLETON",40.0533,-75.0434,403198,752604
201501,1416195,555904,8,1.67,"NNW","TACONY",40.0431,-75.0393,402586,752358
201501,1416210,549600,1,.48,"WNW","ALBERT",34.3719,-93.878,3422314,9352680
201501,1416210,549600,2,.46,"W","ALBERT",34.3694,-93.8781,3422164,9352686
201501,1416210,549600,3,.59,"W","ALBERT",34.3694,-93.8803,3422164,9352818
201501,1416210,549600,4,.6,"WNW","ALBERT",34.373,-93.8799,3422380,9352794
201501,1416210,549600,5,.56,"NW","ALBERT",34.3753,-93.8774,3422518,9352644
201501,1416210,549600,6,.48,"NW","ALBERT",34.3741,-93.8769,3422446,9352614
201501,1416227,549911,1,2.63,"NW","BRAZORIA",29.0773,-95.6103,294638,9536618
201501,1416227,549911,2,2.42,"NW","BRAZORIA",29.0772,-95.6051,294632,9536306
201501,1416227,549911,3,2.27,"NW","BRAZORIA",29.0746,-95.605,294476,9536300
201501,1416227,549911,4,2.51,"NW","BRAZORIA",29.0748,-95.6103,294488,9536618
201501,1416245,550096,1,2.08,"ENE","MANASOTA",26.989,-82.2878,2659340,8217268
201501,1416245,550096,2,3.04,"SSE","WARM MINERAL SPRINGS",27.0079,-82.2554,27474,8215324
201501,1416245,550097,1,3.84,"NNW","(AGR)AVON PARK",27.6305,-81.556,2737830,8133360
201501,1416245,550341,1,4.56,"NNW","EL JOBEAN",27.0079,-82.2554,27474,8215324
201501,1416245,550341,2,4.96,"NNW","EL JOBEAN",27.02,-82.2376,271200,8214256
201501,1416258,550241,1,.69,"S","DUE WEST",33.96,-84.67,3357600,8440200
201501,1416258,550241,2,3.09,"NW","LOST MTN",33.96,-84.74,3357600,8444400
201501,1416258,550241,3,2.15,"SSW","ACWORTH",34.05,-84.68,343000,8440800
201501,1416258,550241,4,1.8,"NE","DUE WEST",33.99,-84.65,3359400,8439000
201501,1416258,550983,1,.9,"NW","HAMLET",34.08,-85.09,344800,855400
201501,1416258,550983,2,2.39,"ENE","POSCO",34.08,-84.98,344800,8458800
201501,1416258,550983,3,3.98,"SW","VAN WERT",33.94,-85.08,3356400,854800
201501,1416258,550983,4,1.34,"WSW","ANTIOCH",33.94,-85.19,3356400,8511400
201501,1416258,550990,1,.9,"NW","HAMLET",34.08,-85.09,344800,855400
201501,1416258,550990,2,2.39,"ENE","POSCO",34.08,-84.98,344800,8458800
201501,1416258,550990,3,3.98,"SW","VAN WERT",33.94,-85.08,3356400,854800
201501,1416258,550990,4,1.34,"WSW","ANTIOCH",33.94,-85.19,3356400,8511400
201501,1416258,550991,1,2.07,"N","NEWTOWN",34.1,-84.25,346000,8415000
201501,1416258,550991,2,2.37,"NNE","OCEE",34.1,-84.2,346000,8412000
201501,1416258,550991,3,2.07,"S","NEWTOWN",34.04,-84.25,342400,8415000
201501,1416258,550991,4,3.45,"S","ALPHARETTA",34.02,-84.3,341200,8418000
201501,1416258,550991,5,2.39,"ENE","NORTH ROSWELL",34.04,-84.33,342400,8419800
201501,1416258,550991,6,1.14,"W","NEWTOWN",34.07,-84.27,344200,8416200
201501,1416258,550996,1,2.07,"N","ARNOLD MILL",34.15,-84.38,349000,8422800
201501,1416258,550996,2,2.67,"ESE","ARNOLD MILL",34.1,-84.34,346000,8420400
201501,1416258,550996,3,3.09,"SE","WOODSTOCK",34.07,-84.48,344200,8428800
201501,1416258,550996,4,.9,"NW","WOODSTOCK",34.11,-84.53,346600,8431800
201501,1416258,550996,5,0,"N","LEBANON",34.15,-84.52,349000,8431200
201501,1416258,550996,6,2.69,"SE","HOLLY SPGS",34.14,-84.47,348400,8428200
201501,1416258,551001,1,3.54,"NW","CONSTITUTION",33.71,-84.4,3342600,8424000
201501,1416258,551001,2,2.15,"SSW","VISTA GROVE",33.75,-84.36,3345000,8421600
201501,1416258,551001,3,1.8,"SW","PANTHERSVILLE",33.68,-84.29,3340800,8417400
201501,1416258,551001,4,.57,"W","CONSTITUTION",33.68,-84.36,3340800,8421600
201501,1416258,551002,1,1.38,"N","CONSTITUTION",33.7,-84.35,3342000,8421000
201501,1416258,551002,2,.9,"SW","GLEN HAVEN",33.74,-84.23,3344400,8413800
201501,1416258,551002,3,1.72,"E","PANTHERSVILLE",33.7,-84.24,3342000,8414400
201501,1416258,551002,4,0,"N","CONSTITUTION",33.68,-84.35,3340800,8421000
201501,1416258,555618,1,1.61,"SSE","(PDK)DEKALB PEACHTRE",33.8602,-84.2853,3351612,8417118
201501,1416258,555618,2,2.03,"ESE","(PDK)DEKALB PEACHTRE",33.8669,-84.2683,3352014,8416098
201501,1416258,555626,1,.64,"S","FINLEYSON",32.1207,-83.5002,327242,8330012
201501,1416258,555626,2,.67,"SSE","FINLEYSON",32.1205,-83.4974,327230,8329844
201501,1416258,555633,1,8.59,"SSE","HAWKINSVILLE ARPT",32.173,-83.3551,3210380,8321306
201501,1416258,555633,2,9.04,"SE","HAWKINSVILLE ARPT",32.1867,-83.3215,3211202,8319290
201501,1416258,555634,1,.71,"WSW","DEMPSEY",32.2245,-83.2403,3213470,8314418
201501,1416258,555634,2,.42,"SW","DEMPSEY",32.2255,-83.2349,3213530,8314094
201501,1416276,550428,1,4.37,"SSE","JUPITER INLET",26.8731,-80.049,2652386,802940
201501,1416277,550429,1,1.58,"E","PORT EVERGLADES",26.0957,-80.1049,265742,806294
201501,1416277,550430,1,6.11,"SW","KEY BISCAYNE",25.71,-80.21,2542600,8012600
201501,1416309,551808,1,1.19,"SE","GLENWOOD CATRON CO A",33.3373,-108.8561,3320238,10851366
201501,1416329,550935,1,0,"N","C TOWER",29.4,-84.86,2924000,8451600
201501,1416329,550937,1,0,"N","C TOWER",29.4,-84.86,2924000,8451600
201501,1416329,550938,1,0,"N","C TOWER",29.4,-84.86,2924000,8451600
201501,1416329,550939,1,6.82,"SSE","APALACHICOLA",29.6267,-84.943,2937602,8456580
201501,1416329,550940,1,5.6,"S","EASTPOINT",29.6695,-84.8595,2940170,8451570
201501,1416337,551130,1,0,"N","CHESAPEAKE BAY BRIDGE TUNNEL STATION (CBBV2)",36.97,-76.11,3658200,766600
201501,1416337,551131,1,0,"N","YORK RIVER EAST REAR RANGE LIGHT WLON (YKRV2)",37.25,-76.33,3715000,7619800
201501,1416337,551132,1,0,"N","STINGRAY POINT CBIBS (44058)",37.57,-76.27,3734200,7616200
201501,1416337,551133,1,0,"N","YORK RIVER EAST REAR RANGE LIGHT WLON (YKRV2)",37.25,-76.33,3715000,7619800
201501,1416337,551134,1,0,"N","WILLOUGHBY DEGAUSSING STATION WLON (WDSV2)",36.98,-76.32,3658800,7619200
201501,1416337,551135,1,0,"N","CHESAPEAKE BAY BRIDGE TUNNEL STATION (CBBV2)",36.97,-76.11,3658200,766600
201501,1416337,551136,1,.88,"NW","CAPE HENRY",36.93,-76.01,3655800,76600
201501,1416338,551137,1,0,"N","OCEAN CITY INLET STATION (OCIM2)",38.33,-75.03,3819800,751800
201501,1416370,551361,1,0,"ESE","BAKERSFIELD",35.37,-119,3522200,11900
201501,1416370,551370,1,7.36,"NNE","EDISON",35.44,-118.8,3526400,11848000
201501,1416370,551375,1,9.57,"E","ONYX",35.67,-118.06,3540200,1183600
201501,1416370,551377,1,0,"N","WOFFORD HGTS",35.7,-118.45,3542000,11827000
201501,1416372,557950,1,5.14,"SW","WATERLOO",41.2231,-96.3637,4113386,9621822
201501,1416372,557950,2,5.84,"SSW","WATERLOO",41.2039,-96.3489,4112234,9620934
201501,1416372,557950,3,5.57,"SSW","WATERLOO",41.2064,-96.3438,4112384,9620628
201501,1416372,557950,4,4.88,"SW","WATERLOO",41.2235,-96.3565,4113410,9621390
201501,1416396,551600,1,1.43,"W","KAUNALEWA",22.0019,-159.7522,22114,15945132
201501,1416396,551600,2,3.82,"NW","ANAHOLA",22.1608,-159.3402,229648,15920412
201501,1416396,551601,1,2.33,"NE","MAUNALOA",21.1567,-157.1979,219402,15711874
201501,1416396,551601,2,2.92,"SW","WAIANAPANAPA SP",20.7515,-156.0333,2045090,1561998
201501,1416396,551602,1,3.18,"SSW","MOKULEIA",21.5353,-158.1921,2132118,15811526
201501,1416396,551602,2,.86,"SW","KAMILOIKI",21.3113,-157.6895,2118678,15741370
201501,1416396,551603,1,5.99,"NNE","KAILUA KONA",19.7103,-155.9454,1942618,15556724
201501,1416396,551603,2,5.44,"NNW","KALAPANA",19.4205,-155.0171,1925230,1551026
201501,1416397,551604,1,8.45,"S","FAD BUOY ZZ",19.8297,-155.9936,1949782,15559616
201501,1416397,551604,2,8.28,"NE","KEAHOLE POINT",19.8274,-155.9959,1949644,15559754
201501,1416412,551766,1,0,"N","(LAS)MCCARRAN/LAS VE",36.08,-115.15,364800,1159000
201501,1416414,552037,1,1.33,"W","YUCCA VLY",34.1165,-116.4729,346990,11628374
201501,1416414,552037,2,1.09,"WNW","TWENTY NINE PALMS",34.1381,-116.0664,348286,1163984
201501,1416417,551771,1,0,"N","(LAS)MCCARRAN/LAS VE",36.08,-115.15,364800,1159000
201501,1416423,551864,1,0,"N","FISK",36.78,-90.22,3646800,9013200
201501,1416423,551864,2,0,"N","QULIN",36.6,-90.27,3636000,9016200
201501,1416423,551864,3,0,"N","NEELYVILLE",36.57,-90.5,3634200,9030000
201501,1416423,551864,4,0,"N","STRINGTOWN",36.75,-90.58,3645000,9034800
201501,1416423,551864,5,0,"N","HENDRICKSON",36.9,-90.48,3654000,9028800
201501,1416423,551865,1,0,"N","CAPE GIRARDEAU",37.3,-89.53,3718000,8931800
201501,1416424,551866,1,0,"N","PRINCETON",38.35,-87.57,3821000,8734200
201501,1416425,551867,1,3.61,"WSW","PULASKI",37.1974,-89.2591,3711844,8915546
201501,1416425,551867,2,3.22,"WSW","PULASKI",37.1975,-89.2512,3711850,8915072
201501,1416425,551867,3,2.93,"W","PULASKI",37.2158,-89.253,3712948,8915180
201501,1416425,551867,4,3.28,"W","PULASKI",37.2153,-89.2593,3712918,8915558
201501,1416427,551890,1,.93,"WSW","GIRO",38.4928,-87.4845,3829568,8729070
201501,1416427,551890,2,1.81,"NE","HAZLETON",38.4957,-87.5032,3829742,8730192
201501,1416427,551890,3,.71,"NNE","HAZLETON",38.4899,-87.5267,3829394,8731602
201501,1416427,551890,4,1.46,"NNE","HAZLETON",38.5005,-87.5233,3830030,8731398
201501,1416427,551891,1,0,"N","PETERSBURG",38.5,-87.28,3830000,8716800
201501,1416427,551891,2,3.84,"NE","PETERSBURG",38.5355,-87.2253,3832130,8713518
201501,1416427,551891,3,3.4,"NE","PETERSBURG",38.5401,-87.2435,3832406,8714610
201501,1416427,551891,4,.74,"N","PETERSBURG",38.5106,-87.2823,3830636,8716938
201501,1416438,552001,1,.12,"NNE","PAUWELA",20.9315,-156.3191,2055890,15619146
201501,1416438,552001,2,3.17,"W","WAIANAPANAPA SP",20.7871,-156.0484,2047226,1562904
201501,1416451,552206,1,0,"N","PETIS BOIS ISLAND STATION (PTBM6)",30.21,-88.5,3012600,8830000
201501,1416451,552208,1,0,"N","MAIN PASS 289 AWOS (KVKY)",29.25,-88.44,2915000,8826400
201501,1416451,552209,1,0,"N","LUKE OFFSHORE TEST SITE STATION (42040)",29.21,-88.21,2912600,8812600
201501,1416451,552211,1,0,"N","MAIN PASS 289 AWOS (KVKY)",29.25,-88.44,2915000,8826400
201501,1416451,552212,1,0,"N","MAIN PASS 140 AWOS (KMIS)",29.3,-88.84,2918000,8850400
201501,1416451,552214,1,0,"N","MAIN PASS 289 AWOS (KVKY)",29.25,-88.44,2915000,8826400
201501,1416451,552215,1,0,"N","LUKE OFFSHORE TEST SITE STATION (42040)",29.21,-88.21,2912600,8812600
201501,1416458,552365,1,2,"NE","ROSBURG",46.3505,-123.6004,4621030,12336024
201501,1416458,552365,2,1.5,"SW","ROSBURG",46.3147,-123.6522,4618882,12339132
201501,1416458,552365,3,1.5,"W","ROSBURG",46.33,-123.6614,4619800,12339684
201501,1416458,552365,4,1.5,"N","ROSBURG",46.3517,-123.63,4621102,12337800
201501,1416458,552366,1,.5,"S","NASELLE",46.3628,-123.82,4621768,12349200
201501,1416458,552366,2,2,"ESE","NASELLE",46.3589,-123.7813,4621534,12346878
201501,1416458,552366,3,1.5,"ENE","NASELLE",46.3783,-123.7909,4622698,12347454
201501,1416458,552366,4,.5,"N","NASELLE",46.3772,-123.82,4622632,12349200
201501,1416458,552373,1,6,"W","ROSBURG",46.33,-123.7558,4619800,12345348
201501,1416458,552373,2,4.5,"WNW","GRAYS RIVER",46.3749,-123.6872,4622494,12341232
201501,1416459,552417,1,.91,"SW","ROCKINGHAM",31.54,-82.43,3132400,8225800
201501,1416459,552418,1,1.18,"SSW","ROCKINGHAM",31.5345,-82.4286,3132070,8225716
201501,1416459,552418,2,1.63,"NNE","NEW LACY",31.5719,-82.3597,3134314,8221582
201501,1416460,552419,1,1.5,"SSE","MAYPORT NAS",30.38,-81.41,3022800,8124600
201501,1416460,552420,1,.69,"S","MAYPORT NAS",30.39,-81.42,3023400,8125200
201501,1416460,552421,1,1.82,"SE","CUMBERLAND STAFFORD",31.05,-81.41,313000,8124600
201501,1416461,552422,1,3.64,"W","MAYPORT NAS",30.39,-81.48,3023400,8128800
201501,1416461,552423,1,1.5,"NNE","MAYPORT NAS",30.42,-81.41,3025200,8124600
201501,1416462,552499,1,1.38,"N","ODESSA",31.8699,-102.3683,3152194,10222098
201501,1416462,552499,2,1.54,"N","ODESSA",31.8723,-102.369,3152338,10222140
201501,1416462,552499,3,1.52,"N","ODESSA",31.8721,-102.37,3152326,10222200
201501,1416462,552499,4,1.37,"N","ODESSA",31.8698,-102.3693,3152188,10222158
201501,1416586,553878,1,.47,"W","GIG HARBOR",47.33,-122.59,4719800,12235400
201501,1416627,555984,1,.68,"SSE","SPRINGFIELD",40.6909,-74.2952,4041454,7417712
201501,1416627,555984,2,.77,"SSE","SPRINGFIELD",40.6896,-74.2948,4041376,7417688
201501,1416627,555984,3,.67,"SSE","VAUXHALL",40.6907,-74.2665,4041442,7415990
201501,1416627,555984,4,.28,"SE","UNION",40.6971,-74.2462,4041826,7414772
201501,1416627,555984,5,.19,"ESE","UNION",40.6986,-74.2468,4041916,7414808
201501,1416628,555981,1,1.05,"ESE","FLEETWOOD",40.9152,-73.8108,4054912,7348648
201501,1416628,555981,2,1.09,"W","EAST CHESTER",40.9309,-73.8008,4055854,7348048
201501,1416628,555981,3,1.35,"WNW","EAST CHESTER",40.935,-73.805,4056100,7348300
201501,1416628,555981,4,1.44,"NW","EAST CHESTER",40.9458,-73.7979,4056748,7347874
201501,1416628,555981,5,1.49,"E","TUCKAHOE",40.9463,-73.8018,4056778,7348108
201501,1416628,555981,6,1.14,"ENE","BRONXVILLE",40.937,-73.8103,4056220,7348618
201501,1416628,555981,7,.92,"ESE","FLEETWOOD",40.9161,-73.8131,4054966,7348786
201501,1416628,555982,1,.6,"ENE","FLEETWOOD",40.9227,-73.819,4055362,7349140
201501,1416628,555982,2,1.15,"E","FLEETWOOD",40.9227,-73.8083,4055362,7348498
201501,1416628,555982,3,1.15,"E","FLEETWOOD",40.9211,-73.8081,4055266,7348486
201501,1416628,555982,4,.56,"ENE","FLEETWOOD",40.9218,-73.8195,4055308,7349170
201501,1416669,555374,1,.09,"NE","EDISTO BUOY (41004)",32.501,-79.099,3230060,795940
201501,1416673,555383,1,4.07,"NNE","BURROUGHS",32.0365,-81.2301,322190,8113806
201501,1416673,555383,2,3.08,"SSE","FERNWOOD",32.0572,-81.1851,323432,8111106
201501,1416673,555384,1,2.72,"NW","FAIRWAY OAKS",32.06,-81.16,323600,819600
201501,1416673,555385,1,1.81,"SE","LIBERTY CITY",32.01,-81.1,32600,816000
201501,1416673,555386,1,1.5,"NNE","CENTRAL JCT",32.1,-81.11,326000,816600
201501,1416676,555405,1,4.88,"SSW","TURNBULL",31.6566,-87.1667,3139396,8710002
201501,1416676,555405,2,4.81,"SSW","TURNBULL",31.657,-87.1649,3139420,879894
201501,1416676,556259,1,4.23,"ENE","TUNNELL SPGS",31.6444,-87.1801,3138664,8710806
201501,1416676,556264,1,.6,"WNW","MONROEVILLE",31.522,-87.3399,3131320,8720394
201501,1416677,555406,1,3.52,"WNW","THEBA",31.57,-86.375,3134200,8622500
201501,1416677,555406,2,1.85,"W","SOCIAL TOWN",31.715,-86.201,3142900,8612060
201501,1416678,555438,1,1.73,"NNW","BLYTHE",33.6444,-114.6066,3338664,11436396
201501,1416678,555438,2,2.87,"NE","EAST BLYTHE",33.6486,-114.5438,3338916,11432628
201501,1416678,555438,3,6.02,"E","MESAVILLE",33.7081,-114.5157,3342486,11430942
201501,1416678,555438,4,3.16,"NE","MESAVILLE",33.7272,-114.5757,3343632,11434542
201501,1416678,555446,1,20.7,"NE","STYX",34.0743,-114.505,344458,11430300
201501,1416678,555446,2,23.03,"NE","COX",34.0766,-114.4552,344596,11427312
201501,1416678,555446,3,20.34,"NE","COX",34.0214,-114.4614,341284,11427684
201501,1416678,555446,4,17.88,"NE","COX",34.0185,-114.5132,341110,11430792
201501,1416679,555454,1,3.24,"SSW","MOBILE",33.011,-112.3009,33660,11218054
201501,1416679,555454,2,3.71,"WNW","MOBILE",33.0662,-112.3311,333972,11219866
201501,1416679,555454,3,3.17,"NNE","MOBILE",33.0904,-112.2439,335424,11214634
201501,1416679,555454,4,3.54,"ESE","MOBILE",33.0392,-112.2102,332352,11212612
201501,1416684,557994,1,1.05,"NW","KOLEEN",38.9798,-86.8451,3858788,8650706
201501,1416684,557994,2,1.08,"NW","KOLEEN",38.9807,-86.8446,3858842,8650676
201501,1416684,557994,3,1.02,"NW","KOLEEN",38.9804,-86.8436,3858824,8650616
201501,1416684,557994,4,1,"NW","KOLEEN",38.9794,-86.8441,3858764,8650646
201501,1416694,555717,1,0,"N","STANNARD ROCK LIGHT",47.18,-87.23,4710800,8713800
201501,1416732,556226,1,38.12,"W","TONTO BASIN",33.9299,-112.0139,3355794,112834
201501,1416732,556226,2,8.38,"NNE","WASHINGTON PARK",34.5342,-111.2201,3432052,11113206
201501,1416733,556254,1,.27,"WNW","UNION CHAPEL",33.2012,-88.1344,3312072,888064
201501,1416733,556255,1,3.5,"N","REFORM",33.43,-88.01,3325800,88600
201501,1416733,556256,1,.55,"E","CUBA",32.4312,-88.3707,3225872,8822242
201501,1416733,556256,2,1.18,"ENE","CUBA",32.437,-88.3615,3226220,8821690
201501,1416733,556257,1,2.71,"WSW","BODKA",32.8062,-88.2937,3248372,8817622
201501,1416733,556257,2,1.87,"W","BODKA",32.8211,-88.2822,3249266,8816932
201501,1416733,556258,1,3.85,"NW","WEST GREENE",32.9596,-88.1268,3257576,887608
201501,1416733,556258,2,2.9,"SSW","RIDGE",32.9827,-88.1229,3258962,887374
201501,1416733,556260,1,4.7,"NNW","MOLLOY",33.7932,-88.2302,3347592,8813812
201501,1416733,556261,1,3.59,"SW","VERNON LAMAR CO ARPT",33.79,-88.16,3347400,889600
201501,1416733,556262,1,6.84,"NNE","SNODDY",33.1243,-87.8438,337458,8750628
201501,1416733,556262,2,7.17,"NNE","SNODDY",33.1277,-87.8384,337662,8750304
201501,1416733,556263,1,6.67,"NW","RALPH",33.1277,-87.8384,337662,8750304
201501,1416733,556263,2,7.01,"NNW","RALPH",33.1382,-87.8298,338292,8749788
201501,1416733,556265,1,1.57,"ENE","PLEASANT RIDGE",34.1765,-87.9537,3410590,8757222
201501,1416733,556265,2,1.85,"ENE","PLEASANT RIDGE",34.1778,-87.9491,3410668,8756946
201501,1416733,556266,1,3.59,"NW","TWIN",34.04,-87.89,342400,8753400
201501,1416733,556266,2,4.44,"NNW","TWIN",34.0625,-87.8678,343750,8752068
201501,1416733,556810,1,3.9,"NW","BRINN",34.2039,-87.8546,3412234,8751276
201501,1416733,556819,1,.69,"N","BOX SPGS",33.21,-87.48,3312600,8728800
201501,1416733,556825,1,.03,"NW","HALEYVILLE POSEY ARP",34.2803,-87.6004,3416818,8736024
201501,1416733,556828,1,5.99,"SSE","GORDO",33.2403,-87.8594,3314418,8751564
201501,1416733,556828,2,6.85,"SSE","GORDO",33.2322,-87.845,3313932,8750700
201501,1416733,556828,3,6.36,"SSE","GORDO",33.2429,-87.8397,3314574,8750382
201501,1416733,556828,4,5.68,"SSE","GORDO",33.248,-87.8528,3314880,8751168
201501,1416733,556874,1,1.67,"NW","NORTHPORT",33.2388,-87.5981,3314328,8735886
201501,1416733,556874,2,4.97,"SW","HULL",32.9938,-87.6737,3259628,8740422
201501,1416733,556874,3,1.74,"NNW","HAGLER",33.0526,-87.3633,333156,8721798
201501,1416733,556874,4,1.42,"SW","FOX",33.255,-87.4869,3315300,8729214
201501,1416776,556863,1,2.82,"N","WASHINGTON NATIONALS PARK",38.91,-77,3854600,7700
201501,1416776,556864,1,0,"N","WASHINGTON NATIONALS PARK",38.87,-77.01,3852200,77600
201501,1416776,556865,1,0,"N","TOLLY POINT",38.94,-76.44,3856400,7626400
201501,1416776,556866,1,6.39,"WSW","THOMAS POINT LIGHT",38.85,-76.54,3851000,7632400
201501,1416776,556867,1,0,"N","THOMAS POINT LIGHT",38.9,-76.44,3854000,7626400
201501,1416776,556868,1,12.92,"SSW","THOMAS POINT LIGHT",38.73,-76.54,3843800,7632400
201501,1416776,556869,1,12.99,"ENE","BALTIMORE CITY",39.36,-76.37,3921600,7622200
201501,1416776,556870,1,17.98,"WNW","PINEY POINT",38.24,-76.83,3814400,7649800
201501,1416776,556871,1,0,"N","PINEY POINT",38.13,-76.53,387800,7631800
201501,1416776,556872,1,0,"N","COVE POINT",38.43,-76.39,3825800,7623400
201501,1416776,556873,1,0,"N","SMITH ISLAND",37.98,-76.04,3758800,762400
201501,1416778,556884,1,.86,"ENE","SAMANTHA",33.4232,-87.6055,3325392,8736330
201501,1416778,556884,2,1.27,"NNE","COKER",33.2466,-87.6905,3314796,8741430
201501,1416778,556885,1,0,"N","(TCL)TUSCALOOSA ARPT",33.22,-87.62,3313200,8737200
201501,1416778,556886,1,0,"N","(BHM)BIRMINGHAM ARPT",33.57,-86.75,3334200,8645000
201501,1416778,556887,1,.76,"NW","CALERA",33.109,-86.7774,336540,8646644
201501,1416778,556888,1,.69,"N","DUNAVANT",33.49,-86.55,3329400,8633000
201501,1416778,556889,1,1.07,"ENE","CALERA",33.1048,-86.7525,336288,8645150
201501,1416803,557126,1,0,"N","ROCK OF AGES LIGHT",47.77,-89.22,4746200,8913200
201501,1416850,557799,1,0,"N","BUZZARDS BAY ENTRANCE TOWER",41.4,-71.03,4124000,711800
201501,1416850,557803,1,8.29,"S","THATCHER ISLAND",42.51,-70.57,4230600,7034200
201501,1416850,557804,1,6.58,"NNE","MINOT LIGHT",42.35,-70.69,4221000,7041400
201501,1416854,557899,1,4,"S","KEY WEST",24.5021,-81.78,2430126,8146800
201503,1417924,566254,3,.86,"E","DAWKINS",37.7711,-82.7543,3746266,8245258
201503,1417924,566254,4,.82,"E","DAWKINS",37.7687,-82.7552,3746122,8245312
201503,1417924,566255,1,.7,"W","FARISTON",37.0714,-84.0626,374284,843756
201503,1417924,566255,2,.57,"W","FARISTON",37.071,-84.0602,374260,843612
201503,1417924,566255,3,.68,"W","FARISTON",37.0684,-84.0621,374104,843726
201503,1417924,566255,4,.81,"W","FARISTON",37.07,-84.0646,374200,843876
201503,1417924,566256,1,1.57,"WSW","WEST PRESTONSBURG",37.6574,-82.824,3739444,8249440
201503,1417924,566256,2,1.38,"SW","WEST PRESTONSBURG",37.6556,-82.8176,3739336,8249056
201503,1417924,566256,3,1.73,"SW","WEST PRESTONSBURG",37.6518,-82.8216,3739108,8249296
201503,1417924,566256,4,1.8,"SW","WEST PRESTONSBURG",37.6541,-82.8261,3739246,8249566
201503,1417924,566257,1,1.54,"E","QUICKSAND",37.528,-83.3219,3731680,8319314
201503,1417924,566257,2,1.17,"WNW","PRESS",37.5346,-83.3006,3732076,8318036
201503,1417924,566257,3,1.83,"WNW","PRESS",37.5432,-83.309,3732592,8318540
201503,1417924,566257,4,1.5,"ENE","QUICKSAND",37.5379,-83.3244,3732274,8319464
201503,1417924,566258,1,1.2,"SW","PIGEONROOST",37.1072,-83.8147,376432,8348882
201503,1417924,566258,2,1.15,"S","SIBERT",37.1034,-83.7819,376204,8346914
201503,1417924,566258,3,1.01,"N","COTTONGIM",37.0844,-83.7835,375064,8347010
201503,1417924,566258,4,2.31,"WNW","COTTONGIM",37.0883,-83.815,375298,8348900
201503,1417924,566259,1,1.43,"SE","DRYHILL",37.208,-83.3489,3712480,8320934
201503,1417924,566259,2,1.83,"ESE","DRYHILL",37.2079,-83.3404,3712474,8320424
201503,1417924,566259,3,2.03,"SE","DRYHILL",37.203,-83.3401,3712180,8320406
201503,1417924,566259,4,1.61,"SE","DRYHILL",37.2039,-83.3489,3712234,8320934
201503,1417924,566260,1,1.22,"ESE","TOLIVER",37.8114,-83.4506,3748684,8327036
201503,1417924,566260,2,1.46,"WNW","HAZEL GREEN",37.8115,-83.4425,3748690,8326550
201503,1417924,566260,3,1.2,"WNW","HAZEL GREEN",37.8049,-83.4412,3748294,8326472
201503,1417924,566260,4,1.44,"SE","TOLIVER",37.8051,-83.4516,3748306,8327096
201503,1417924,566261,1,1,"W","BURKHART",37.7,-83.2883,3742000,8317298
201503,1417924,566261,2,.96,"W","BURKHART",37.7001,-83.2876,3742006,8317256
201503,1417924,566261,3,.96,"W","BURKHART",37.6992,-83.2875,3741952,8317250
201503,1417924,566261,4,1,"W","BURKHART",37.6991,-83.2883,3741946,8317298
201503,1417924,566262,1,0,"N","HINDMAN",37.33,-82.98,3719800,8258800
201503,1417924,566262,2,.53,"NW","HINDMAN",37.335,-82.9873,3720100,8259238
201503,1417924,566262,3,.71,"WNW","HINDMAN",37.3332,-82.9923,3719992,8259538
201503,1417924,566262,4,.51,"WSW","HINDMAN",37.3283,-82.9891,3719698,8259346
201503,1417924,566263,1,0,"N","BEVERLY",36.93,-83.53,3655800,8331800
201503,1417924,566263,2,.51,"W","BEVERLY",36.9311,-83.5391,3655866,8332346
201503,1417924,566263,3,1.22,"SW","BEVERLY",36.9171,-83.545,3655026,8332700
201503,1417924,566263,4,.88,"SSW","BEVERLY",36.9175,-83.5335,3655050,8332010
201503,1417924,566264,1,2.09,"SW","HOLLYHILL",36.6519,-84.3501,3639114,8421006
201503,1417924,566264,2,1.87,"SW","HOLLYHILL",36.6534,-84.3468,3639204,8420808
201503,1417924,566264,3,1.94,"SW","HOLLYHILL",36.6499,-84.3444,3638994,8420664
201503,1417924,566264,4,1.98,"N","CREEKMORE",36.6487,-84.3478,3638922,8420868
201503,1417924,566265,1,0,"N","WAYLAND",37.45,-82.8,3727000,8248000
201503,1417924,566265,2,.13,"SSW","GLO",37.4482,-82.8206,3726892,8249236
201503,1417924,566265,3,.88,"S","GLO",37.4373,-82.8184,3726238,8249104
201503,1417924,566265,4,.76,"S","WAYLAND",37.439,-82.799,3726340,8247940
201503,1417924,566266,1,0,"N","SALYERSVILLE",37.75,-83.07,3745000,834200
201503,1417924,566266,2,.19,"NE","SALYERSVILLE",37.752,-83.0676,3745120,834056
201503,1417924,566266,3,.24,"E","SALYERSVILLE",37.7504,-83.0656,3745024,833936
201503,1417924,566266,4,.07,"SE","SALYERSVILLE",37.7493,-83.0692,3744958,834152
201503,1417924,566267,1,.72,"E","ROYALTON",37.678,-83.007,3740680,83420
201503,1417924,566267,2,.99,"WSW","MARSHALLVILLE",37.6764,-82.9975,3740584,8259850
201503,1417924,566267,3,1.23,"ESE","ROYALTON",37.6717,-83.0001,3740302,8306
201503,1417924,566267,4,.76,"ESE","ROYALTON",37.6744,-83.0082,3740464,83492
201503,1417924,566268,1,3,"W","HYDEN",37.17,-83.4245,3710200,8325470
201503,1417924,566268,2,.6,"SW","THOUSANDSTICKS",37.1729,-83.4262,3710374,8325572
201503,1417924,566268,3,.7,"SW","THOUSANDSTICKS",37.172,-83.4279,3710320,8325674
201503,1417924,566268,4,.79,"SSW","THOUSANDSTICKS",37.1697,-83.4262,3710182,8325572
201503,1417924,566269,1,1,"SSW","HAROLD",37.5366,-82.637,3732196,8238220
201503,1417924,566269,2,.37,"E","AMBA",37.5297,-82.6432,3731782,8238592
201503,1417924,566269,3,.25,"NNE","AMBA",37.5334,-82.6484,3732004,8238904
201503,1417924,566269,4,.79,"NE","AMBA",37.5383,-82.64,3732298,8238400
201503,1417924,566271,1,1.08,"NNE","LAMERO",37.3149,-84.1642,3718894,849852
201503,1417924,566271,2,2.68,"ENE","LAMERO",37.3153,-84.1252,3718918,847512
201503,1417924,566271,3,2.62,"ESE","LAMERO",37.2906,-84.1239,3717436,847434
201503,1417924,566271,4,.54,"SW","LAMERO",37.294,-84.1762,3717640,8410572
201503,1417924,566272,1,0,"N","BLACKEY",37.13,-82.98,377800,8258800
201503,1417924,566272,2,1.04,"ENE","BLACKEY",37.1345,-82.962,378070,8257720
201503,1417924,566272,3,.13,"SE","ROXANA",37.1184,-82.9487,377104,8256922
201503,1417924,566272,4,1.19,"S","BLACKEY",37.113,-82.9768,376780,8258608
201503,1417924,566273,1,0,"N","WAYLAND",37.45,-82.8,3727000,8248000
201503,1417924,566273,2,.51,"S","ESTILL",37.4427,-82.8283,3726562,8249698
201503,1417924,566273,3,.79,"NE","DEMA",37.4293,-82.8116,3725758,8248696
201503,1417924,566273,4,1.21,"SSE","WAYLAND",37.434,-82.7909,3726040,8247454
201503,1417924,566274,1,0,"N","PRESS",37.53,-83.28,3731800,8316800
201503,1417924,566274,2,.73,"WNW","WILSTACY",37.5353,-83.2616,3732118,8315696
201503,1417924,566274,3,.53,"SSW","WILSTACY",37.5232,-83.2545,3731392,8315270
201503,1417924,566274,4,.7,"S","PRESS",37.5201,-83.2776,3731206,8316656
201503,1417924,566275,1,4,"W","EOLIA",37.05,-82.8525,373000,8251150
201503,1417924,566275,2,1.59,"W","DAY",37.0739,-82.8584,374434,8251504
201503,1417924,566275,3,2.01,"ENE","KINGS CREEK",37.0634,-82.8877,373804,8253262
201503,1417924,566275,4,2.43,"E","KINGS CREEK",37.045,-82.8764,372700,8252584
201503,1417924,566276,1,1.31,"SSE","OSBORN",37.462,-82.6123,3727720,8236738
201503,1417924,566276,2,1.49,"SSE","OSBORN",37.4616,-82.606,3727696,8236360
201503,1417924,566276,3,1.8,"SSE","OSBORN",37.4563,-82.6065,3727378,8236390
201503,1417924,566276,4,1.69,"S","OSBORN",37.4559,-82.6143,3727354,8236858
201503,1417924,566277,1,0,"N","HINDMAN",37.33,-82.98,3719800,8258800
201503,1417924,566277,2,1.26,"WSW","HINDMAN",37.3249,-83.0021,3719494,83126
201503,1417924,566277,3,1.29,"WNW","HINDMAN",37.3354,-83.0026,3720124,83156
201503,1417924,566277,4,.54,"NNW","HINDMAN",37.3369,-82.9847,3720214,8259082
201503,1417924,566278,1,1.04,"ENE","TURKEY CREEK",37.6765,-82.3028,3740590,8218168
201503,1417924,566278,2,.78,"WSW","SOUTH WILLIAMSON",37.676,-82.2934,3740560,8217604
201503,1417924,566278,3,1.08,"WSW","SOUTH WILLIAMSON",37.6714,-82.2966,3740284,8217796
201503,1417924,566278,4,.83,"ENE","TURKEY CREEK",37.6734,-82.3054,3740404,8218324
201503,1417924,566279,1,2,"NNE","BOARD TREE",37.5567,-82.156,3733402,829360
201503,1417924,566279,2,1.22,"SSE","FREEBURN",37.5542,-82.1398,3733252,828388
201503,1417924,566279,3,.65,"NNE","ARROW",37.5391,-82.1474,3732346,828844
201503,1417924,566279,4,1.16,"N","BOARD TREE",37.5468,-82.1695,3732808,8210170
201503,1417924,566280,1,1.14,"E","STIDHAM",37.881,-82.5592,3752860,8233552
201503,1417924,566280,2,1.44,"WNW","INEZ",37.8812,-82.5523,3752872,8233138
201503,1417924,566280,3,1.33,"WNW","INEZ",37.8783,-82.552,3752698,8233120
201503,1417924,566280,4,1.2,"E","STIDHAM",37.8777,-82.5582,3752662,8233492
201503,1417924,566281,1,2,"E","CARRIE",37.33,-82.9936,3719800,8259616
201503,1417924,566281,2,.39,"WNW","HINDMAN",37.3322,-82.9866,3719932,8259196
201503,1417924,566281,3,.27,"W","HINDMAN",37.33,-82.985,3719800,8259100
201503,1417924,566281,4,.72,"W","HINDMAN",37.3283,-82.9928,3719698,8259568
201503,1417924,566282,1,0,"N","WAYLAND",37.45,-82.8,3727000,8248000
201503,1417924,566282,2,.37,"SE","GLO",37.4458,-82.8158,3726748,8248948
201503,1417924,566282,3,1.1,"SSW","WAYLAND",37.4362,-82.81,3726172,8248600
201503,1417924,566282,4,.76,"SSE","WAYLAND",37.4392,-82.7973,3726352,8247838
201503,1417924,566283,1,1.41,"NW","NEON",37.1938,-82.7188,3711628,8243128
201503,1417924,566283,2,1.05,"NNW","NEON",37.1943,-82.7064,3711658,8242384
201503,1417924,566283,3,.67,"NW","NEON",37.188,-82.7069,3711280,8242414
201503,1417924,566283,4,1.22,"WNW","NEON",37.189,-82.7191,3711340,8243146
201503,1417924,566284,1,0,"N","GARRETT",37.48,-82.83,3728800,8249800
201503,1417924,566284,2,.58,"E","GARRETT",37.4798,-82.8195,3728788,8249170
201503,1417924,566284,3,.65,"ESE","GARRETT",37.4759,-82.8194,3728554,8249164
201503,1417924,566284,4,.28,"S","GARRETT",37.4759,-82.8298,3728554,8249788
201503,1417924,566285,1,0,"N","HAZARD",37.25,-83.2,3715000,8312000
201503,1417924,566285,2,.52,"W","LOTHAIR",37.2512,-83.1893,3715072,8311358
201503,1417924,566285,3,.5,"SSW","LOTHAIR",37.2435,-83.1839,3714610,8311034
201503,1417924,566285,4,.52,"SSE","HAZARD",37.2428,-83.197,3714568,8311820
201503,1417924,566286,1,0,"N","MARTIN",37.57,-82.75,3734200,8245000
201503,1417924,566286,2,.4,"ENE","ALPHORETTA",37.5723,-82.7634,3734338,8245804
201503,1417924,566286,3,.42,"SE","ALPHORETTA",37.5663,-82.7638,3733978,8245828
201503,1417924,566286,4,.29,"SSW","MARTIN",37.5663,-82.7525,3733978,8245150
201503,1417924,566287,1,4,"WSW","VANCLEVE",37.6079,-83.4975,3736474,8329850
201503,1417924,566287,2,.74,"N","WAR CREEK",37.6106,-83.4823,3736636,8328938
201503,1417924,566287,3,.26,"SSW","LAWSON",37.5966,-83.4719,3735796,8328314
201503,1417924,566287,4,.87,"SW","WAR CREEK",37.5917,-83.4918,3735502,8329508
201503,1417924,569196,1,0,"N","EVARTS",36.87,-83.2,3652200,8312000
201503,1417924,569196,2,.51,"WNW","DARKMONT",36.8717,-83.189,3652302,8311340
201503,1417924,569196,3,.4,"WSW","DARKMONT",36.8679,-83.1867,3652074,8311202
201503,1417924,569196,4,.46,"SSE","EVARTS",36.8641,-83.1961,3651846,8311766
201503,1417925,565442,1,.99,"WSW","EDGERLY",30.2253,-93.5156,3013518,9330936
201503,1417925,565442,2,9.15,"WSW","NIBLETTS BLUFF",30.1363,-93.8143,308178,9348858
201503,1417925,565442,3,26.8,"SW","NIBLETTS BLUFF",29.9496,-94.0224,2956976,941344
201503,1417925,565442,4,26.23,"SW","TOOMEY",29.8824,-93.9362,2952944,9356172
201503,1417932,565586,1,4.19,"S","BEAVERTON",33.87,-88.02,3352200,881200
201503,1417932,565607,1,1.79,"NE","SNEAD",34.12,-86.35,347200,8621000
201503,1417932,565608,1,2.67,"ENE","WALNUT GROVE",34.09,-86.26,345400,8615600
201503,1417932,565609,1,.9,"SE","ROCK CITY",33.97,-87.71,3358200,8742600
201503,1417932,565610,1,3.5,"N","ELDRIDGE",33.97,-87.61,3358200,8736600
201503,1417932,565611,1,2.95,"WSW","NAUVOO",33.99,-87.53,3359400,8731800
201503,1417932,565613,1,0,"N","ELDRIDGE",33.92,-87.62,3355200,8737200
201503,1417932,565616,1,5.58,"WSW","TALLADEGA MUNI ARPT",33.54,-86.14,3332400,868400
201503,1417932,565617,1,1.5,"SSE","CLARENCE",34.06,-86.42,343600,8625200
201503,1417932,565618,1,.47,"SSW","LINCOLN",33.6141,-86.1241,3336846,867446
201503,1417932,565619,1,1.38,"N","WILLIAMS",33.92,-86.1,3355200,866000
201503,1417932,565735,1,4.15,"NNW","HENRY LAKE",33.87,-86.11,3352200,866600
201503,1417932,565736,1,.9,"SE","JACKSONVILLE",33.81,-85.76,3348600,8545600
201503,1417932,565737,1,.57,"W","NATHAN",34.08,-87.21,344800,8712600
201503,1417932,565740,1,2.15,"SSE","RAINBOW CITY",33.92,-86.02,3355200,861200
201503,1417932,565743,1,.69,"N","COLDWATER",33.59,-85.92,3335400,8555200
201503,1417932,565745,1,0,"N","ALEXANDRIA",33.77,-85.88,3346200,8552800
201503,1417932,565746,1,5.63,"NNE","STAFFORD",33.52,-88.2,3331200,8812000
201503,1417932,567679,1,.57,"E","DUKE",33.83,-85.89,3349800,8553400
201503,1417932,567680,1,1.8,"NE","(ANB)ANNISTON CALHOU",33.6,-85.83,3336000,8549800
201503,1417932,567681,1,.9,"NE","WEAVER",33.76,-85.81,3345600,8548600
201503,1417932,567682,1,.57,"W","ATTALLA",34.02,-86.09,341200,865400
201503,1417932,567683,1,.58,"E","ASHLAND",33.27,-85.84,3316200,8550400
201503,1417932,567684,1,.69,"S","MILLPORT",33.56,-88.08,3333600,884800
201503,1417932,567685,1,2.07,"N","MARKTON",33.91,-86.02,3354600,861200
201503,1417932,567686,1,5.05,"NW","NEWTONVILLE",33.59,-87.85,3335400,8751000
201503,1417932,567687,1,1.16,"W","MALONE",33.2,-85.57,3312000,8534200
201503,1417932,567688,1,1.38,"S","HIGHMOUND",34.13,-86.38,347800,8622800
201503,1417932,567690,1,1.35,"ENE","ROANOKE",33.16,-85.33,339600,8519800
201503,1417932,567695,1,0,"N","REFORM NO PICKENS AR",33.38,-88,3322800,8800
201503,1417932,567697,1,0,"N","GORDO",33.32,-87.9,3319200,8754000
201503,1417932,567698,1,2.7,"SE","SHIRLEY",33.3,-87.7,3318000,8742000
201503,1417932,567699,1,2.07,"N","NORTHPORT",33.25,-87.58,3315000,8734800
201503,1417932,567700,1,1.5,"NNE","COKER",33.25,-87.69,3315000,8741400
201503,1417932,567701,1,1.5,"NNW","NORTHPORT",33.24,-87.59,3314400,8735400
201503,1417932,567702,1,.69,"N","ROSEDALE",33.21,-87.5707,3312600,8734242
201503,1417932,567703,1,1.5,"SSE","CHISCA",33.85,-87.49,3351000,8729400
201503,1417932,567704,1,1.38,"S","COLEANOR",33.06,-87.03,333600,871800
201503,1417932,567705,1,0,"N","GAMBLE",33.88,-87.33,3352800,8719800
201503,1417932,567706,1,0,"N","TOWNLEY",33.83,-87.43,3349800,8725800
201503,1417932,567707,1,5.35,"ESE","JASPER WALKER CO ARP",33.85,-87.18,3351000,8710800
201503,1417932,567708,1,1.15,"W","PALOS",33.65,-87.07,3339000,874200
201503,1417932,567709,1,0,"N","GRAYSVILLE",33.63,-86.97,3337800,8658200
201503,1417936,565647,1,.97,"SSW","ST JOSEPH",35.0364,-87.5041,352184,8730246
201503,1417936,565648,1,0,"N","ST JOSEPH",35.05,-87.5,353000,8730000
201503,1417936,565649,1,1,"SSW","LORETTO",35.0666,-87.4568,353996,8727408
201503,1417936,565650,1,1.74,"N","CROSSROADS",35.0949,-87.7344,355694,8744064
201503,1417942,566017,1,.69,"S","HUME",38.09,-94.58,385400,9434800
201503,1417942,566018,1,.69,"N","BUTLER",38.26,-94.33,3815600,9419800
201503,1417942,566019,1,0,"N","ADRIAN",38.4,-94.35,3824000,9421000
201503,1417942,566020,1,.57,"SE","ADRIAN",38.3948,-94.3418,3823688,9420508
201503,1417942,566021,1,.88,"SE","GARDEN CITY",38.56,-94.19,3833600,9411400
201503,1417942,566022,1,2.97,"SSW","GUNN CITY",38.63,-94.19,3837800,9411400
201503,1417942,566023,1,1.48,"SSE","HOLDEN",38.7,-93.99,3842000,9359400
201503,1417942,566024,1,3.24,"E","MAGNOLIA",38.65,-93.86,3839000,9351600
201503,1417942,566025,1,1.08,"W","COLUMBUS",38.85,-93.9,3851000,9354000
201503,1417942,566026,1,1.48,"NNE","PITTSVILLE",38.85,-93.99,3851000,9359400
201503,1417942,566027,1,.29,"WNW","HIGGINSVILLE JCT ARP",39.0017,-93.735,39102,9344100
201503,1417942,566028,1,0,"N","LEETON",38.58,-93.7,3834800,9342000
201503,1417942,566029,1,.87,"SE","WAVERLY",39.21,-93.52,3912600,9331200
201503,1417942,566030,1,.54,"E","KNOB NOSTER",38.77,-93.56,3846200,9333600
201503,1417942,566031,1,.88,"SE","LA MONTE",38.77,-93.42,3846200,9325200
201503,1417942,566032,1,.69,"N","HUGHESVILLE",38.84,-93.3,3850400,9318000
201503,1417943,566033,1,.87,"SE","ATCHISON",39.56,-95.12,3933600,957200
201503,1417955,566671,1,1.51,"SSE","GONZALES",29.48,-97.46,2928800,9727600
201503,1417955,566671,2,2.96,"S","GONZALES",29.4578,-97.4614,2927468,9727684
201503,1417955,566671,3,3.04,"SE","GONZALES",29.4638,-97.4412,2927828,9726472
201503,1417955,566671,4,1.92,"WSW","SATURN",29.515,-97.4068,2930900,9724408
201503,1417955,566671,5,2.46,"WSW","SATURN",29.5221,-97.4199,2931326,9725194
201503,1417955,566682,1,2.05,"WNW","CESTOHOWA",29.0311,-97.9814,291866,9758884
201503,1417955,566682,2,.28,"SE","POWELEKVILLE",29.0469,-97.9469,292814,9756814
201503,1417955,566682,3,3.51,"NNW","RUNGE",28.9244,-97.7284,2855464,9743704
201503,1417955,566682,4,3.83,"WNW","RUNGE",28.8917,-97.7618,2853502,9745708
201503,1417955,566686,1,3.09,"WSW","ALUM",29.29,-98,2917400,9800
201503,1417955,566686,2,3.17,"W","ALUM",29.293,-98.002,2917580,98120
201503,1417955,566686,3,3.51,"WSW","ALUM",29.2898,-98.0071,2917388,98426
201503,1417955,566686,4,3.41,"WSW","ALUM",29.2874,-98.0047,2917244,98282
201503,1417955,566688,1,1.48,"SSE","POTH",29.0604,-98.0903,293624,985418
201503,1417955,566688,2,2.51,"SSE","POTH",29.0454,-98.0874,292724,985244
201503,1417955,566688,3,2.59,"S","POTH",29.0431,-98.0922,292586,985532
201503,1417955,566688,4,1.71,"S","POTH",29.0556,-98.0956,293336,985736
201503,1417958,566838,1,0,"N","FRANKVILLE",31.65,-88.15,3139000,889000
201503,1417959,566839,1,0,"N","WAYNESBORO",31.67,-88.65,3140200,8839000
201503,1417961,566882,1,.91,"NE","COBBTOWN",32.21,-82.12,3212600,827200
201503,1417961,566883,1,4.93,"SW","HUGHLAND",31.98,-82.11,3158800,826600
201503,1417961,566884,1,2.38,"SSW","HUGHLAND",32,-82.07,3200,824200
201503,1417961,566885,1,4.9,"ESE","BAYVIEW",31.68,-81.65,3140800,8139000
201503,1417961,566886,1,8.96,"SE","BAYVIEW",31.62,-81.61,3137200,8136600
201503,1417963,567076,1,3.56,"E","JEFF",34.8125,-86.6579,3448750,8639474
201503,1417963,567076,2,3.59,"E","JEFF",34.8105,-86.6578,3448630,8639468
201503,1417963,567076,3,3.48,"E","JEFF",34.8103,-86.6599,3448618,8639594
201503,1417963,567076,4,3.44,"E","JEFF",34.8125,-86.66,3448750,8639600
201503,1417965,567492,1,.29,"NE","PERRIS",33.7834,-117.227,3347004,11713620
201503,1417965,567507,1,2.18,"E","SILVERADO",33.7474,-117.5921,3344844,11735526
201503,1417965,567507,2,2.22,"E","SILVERADO",33.7441,-117.5921,3344646,11735526
201503,1417965,567507,3,2.58,"E","SILVERADO",33.744,-117.5856,3344640,11735136
201503,1417965,567507,4,2.74,"E","SILVERADO",33.7429,-117.5831,3344574,11734986
201503,1417965,567507,5,2.81,"E","SILVERADO",33.7448,-117.5815,3344688,11734890
201503,1417965,567507,6,2.92,"E","SILVERADO",33.75,-117.5791,3345000,11734746
201503,1417965,567507,7,2.78,"E","SILVERADO",33.7506,-117.5816,3345036,11734896
201503,1417965,567764,1,1.07,"S","HUNTINGTON BEACH",33.6546,-118.0018,3339276,118108
201503,1417965,567764,2,.37,"N","BOULEVARD GARDENS",33.6754,-117.9789,3340524,11758734
201503,1417995,567558,1,2.42,"W","HOLUB",34.8442,-90.9421,3450652,9056526
201503,1417995,567558,2,2.06,"SSW","THOMASVILLE",34.7236,-90.9366,3443416,9056196
201502,1417122,554913,3,1.61,"NNW","CAMBRIAN PARK",37.2927,-121.9368,3717562,12156208
201502,1417122,554913,4,1.67,"NNW","CAMBRIAN PARK",37.2933,-121.9381,3717598,12156286
201502,1417122,554914,1,.63,"NNW","CUPERTINO",37.338,-122.0355,3720280,1222130
201502,1417122,554914,2,.4,"SSE","CUPERTINO",37.3244,-122.0286,3719464,1221716
201502,1417122,554914,3,1.13,"NE","CAMPBELL",37.3123,-121.9565,3718738,12157390
201502,1417122,554914,4,1.81,"NNW","CAMPBELL",37.3254,-121.9781,3719524,12158686
201502,1417122,555099,1,4.18,"NNE","SAN LORENZO",37.257,-122.1248,3715420,1227488
201502,1417122,555099,2,4.14,"NNE","SAN LORENZO",37.2562,-122.1239,3715372,1227434
201502,1417122,555099,3,4.21,"NNE","SAN LORENZO",37.2571,-122.1232,3715426,1227392
201502,1417122,555099,4,4.23,"NNE","SAN LORENZO",37.2576,-122.1236,3715456,1227416
201502,1417122,555100,1,2.32,"WNW","JENNER",38.4668,-123.1571,3828008,1239426
201502,1417122,555100,2,1.69,"WNW","JENNER",38.4614,-123.1476,3827684,1238856
201502,1417122,555118,1,1.38,"N","HAYWARD HIGHLANDS",37.65,-122.03,3739000,1221800
201502,1417122,555119,1,1.29,"ESE","DIABLO",37.76,-121.95,3745600,12157000
201502,1417122,555120,1,.88,"NE","MILL VLY AFS",37.93,-122.59,3755800,12235400
201502,1417122,555121,1,7.41,"E","GORDA",35.85,-121.32,3551000,12119200
201502,1417122,555122,1,8.46,"SSE","LUCIA",36.05,-121.52,363000,12131200
201502,1417122,555123,1,8.37,"N","GORDA",35.99,-121.43,3559400,12125800
201502,1417122,555124,1,0,"N","ANGWIN",38.57,-122.43,3834200,12225800
201502,1417122,555125,1,.88,"SW","ST HELENA",38.49,-122.48,3829400,12228800
201502,1417122,555126,1,1.81,"ESE","HERNANDEZ",36.36,-120.77,3621600,12046200
201502,1417122,555127,1,29.82,"WSW","CRISSY AAF",37.7,-123.001,3742000,12360
201502,1417122,555128,1,0,"N","REDWOOD CITY",37.48,-122.27,3728800,12216200
201502,1417122,555130,1,3.92,"E","HOLY CITY",37.16,-121.9,379600,12154000
201502,1417122,555135,1,6.32,"S","NEW ALMADEN",37.09,-121.8,375400,12148000
201502,1417122,555137,1,5.86,"NE","MISSION SPGS",37.14,-121.97,378400,12158200
201502,1417122,555138,1,6.24,"S","SKAGGS SPGS",38.61,-123.02,3836600,1231200
201502,1417133,555325,1,.26,"WSW","KAHAKULOA",20.9988,-156.5538,2059928,15633228
201502,1417133,555325,2,1.01,"S","HONOKOWAI",20.9554,-156.6812,2057324,15640872
201502,1417137,555407,1,.88,"S","PAIA",20.8873,-156.3794,2053238,15622764
201502,1417137,555407,2,1.59,"NNW","KOALI",20.7023,-156.0361,2042138,1562166
201502,1417138,555418,1,1.06,"SW","HANA",20.7614,-155.9935,2045684,15559610
201502,1417138,555418,2,7.54,"WSW","NUU",20.6001,-156.2922,2036006,15617532
201502,1417138,555420,1,3.74,"ESE","KILAUEA",22.1902,-159.3512,2211412,15921072
201502,1417138,555420,2,1.24,"NNW","WAIMEA KAUAI",21.9865,-159.6877,2159190,15941262
201502,1417138,555424,1,2.4,"WSW","MOKULEIA",21.5657,-158.2141,2133942,15812846
201502,1417138,555424,2,.57,"S","KAMILOIKI",21.3118,-157.6792,2118708,15740752
201502,1417138,555428,1,1.83,"NW","MAUNALOA",21.1516,-157.2363,219096,15714178
201502,1417138,555428,2,1.64,"S","HALAWA VALLEY",21.1465,-156.7529,218790,15645174
201502,1417138,555429,1,7.43,"W","SHIPWRECK BEACH",20.9001,-157.0331,2054006,1571986
201502,1417138,555429,2,3.12,"NE","MANELE HARBOR",20.7781,-156.8422,2046686,15650532
201502,1417138,555430,1,.04,"WNW","LAHAINALUNA",20.9001,-156.6705,2054006,15640230
201502,1417138,555430,2,.94,"N","KAUPO",20.6436,-156.1212,2038616,1567272
201502,1417138,555431,1,3.44,"S","HALAULA",20.1802,-155.7806,2010812,15546836
201502,1417138,555431,2,2.17,"NW","KEALAKEKUA",19.5551,-155.9399,1933306,15556394
201502,1417141,555452,1,.5,"SE","UPOLU AIRPORT",20.2648,-155.8647,2015888,15551882
201502,1417141,555452,2,2.79,"SSE","PAAUHAU",20.0406,-155.4208,202436,15525248
